lat	lon	title	description	icon
44.9731202	-93.2737845	Slam Academy	coinmap	coinmap.png
44.976151	-93.269278	Crowne Plaza Minneapolis Northstar Downtown	destination charger	destination charger.png
32.7875701	-96.7961419	CPAs - McCarthy, Rose & Mills, LLP	coinmap	coinmap.png
32.786413	-96.795473	Dallas Marriott City Center	destination charger	destination charger.png
47.6117688048	-122.337296605	Coinme Bitcoin ATM	coinmap	coinmap.png
47.6097909	-122.3366622	Nesbit's Fine Watch Service	coinmap	coinmap.png
47.6100335	-122.3399741	Gearbox Photography	coinmap	coinmap.png
47.607651	-122.339418	Four Seasons Hotel Seattle	destination charger	destination charger.png
43.0404657	-87.9143022	414 Glass & Grooves	coinmap	coinmap.png
43.038437	-87.91756	Hilton Milwaukee City Center	destination charger	destination charger.png
44.8606826	-93.330601	Tech-Shield Consulting	coinmap	coinmap.png
44.856628	-93.331366	Hilton Minneapolis/Bloomington	destination charger	destination charger.png
34.0543661096	-118.40927124	David Mahat	coinmap	coinmap.png
34.054371	-118.411911	InterContinental Hotel Los Angeles, Century City at Beverly Hills	destination charger	destination charger.png
43.0404657	-87.9143022	414 Glass & Grooves	coinmap	coinmap.png
43.041929	-87.911333	InterContinental Milwaukee	destination charger	destination charger.png
49.2839789	-123.1251129	Digital Currency Profits	coinmap	coinmap.png
49.2849221011	-123.123216033	Lead Mate	coinmap	coinmap.png
49.2886327	-123.1259515	Zyza Yoga Clothing & Active Wear	coinmap	coinmap.png
49.2844217132	-123.121622801	Solimano Law	coinmap	coinmap.png
49.2860061	-123.1267009	Steamrollers - burritos	coinmap	coinmap.png
49.287521	-123.123521	Loden Hotel	destination charger	destination charger.png
43.0407955	-87.906093	Bad Genie	coinmap	coinmap.png
43.038873	-87.905652	The Pfister Hotel	destination charger	destination charger.png
39.0417494	-94.5898596	TIVOL	coinmap	coinmap.png
39.039884	-94.591361	The Raphael Hotel	destination charger	destination charger.png
37.7895241	-122.4077704	My Doctor Medical Group	coinmap	coinmap.png
37.790559	-122.4023821	Bamboo Asia	coinmap	coinmap.png
37.7880606	-122.4010128	SC Sports Therapy	coinmap	coinmap.png
37.7842531017	-122.403273582	Coinme Bitcoin ATM	coinmap	coinmap.png
37.7897612	-122.4022864	Bamboo Asia	coinmap	coinmap.png
37.7877738	-122.3998375	imPrint CP	coinmap	coinmap.png
37.7868721	-122.3995645	Wikimedia Foundation	coinmap	coinmap.png
37.7842658205	-122.406460047	Coinme Bitcoin ATM	coinmap	coinmap.png
37.78671	-122.402827	Park Central Hotel	destination charger	destination charger.png
47.6117688048	-122.337296605	Coinme Bitcoin ATM	coinmap	coinmap.png
47.6097909	-122.3366622	Nesbit's Fine Watch Service	coinmap	coinmap.png
47.6100335	-122.3399741	Gearbox Photography	coinmap	coinmap.png
47.614141	-122.336357	Hotel Max	destination charger	destination charger.png
45.5225398	-122.6763546	Philip Kolba Counseling	coinmap	coinmap.png
45.5214864	-122.6808304	Fork Networking Inc	coinmap	coinmap.png
45.5169406	-122.6805748	Smart Legal	coinmap	coinmap.png
45.5193834982	-122.676290274	Rialto Poolroom & Bar	coinmap	coinmap.png
45.5166922221	-122.679691315	David Mahat	coinmap	coinmap.png
45.5176045	-122.6778212	Robocoin ATM	coinmap	coinmap.png
45.520192	-122.680017	Dossier Hotel	destination charger	destination charger.png
34.0451745	-118.2566432	Ham & Eggs Tavern	coinmap	coinmap.png
34.0432155	-118.2549866	Niche.LA Video Art	coinmap	coinmap.png
34.0456545287	-118.256964684	Escort-Ads.com	coinmap	coinmap.png
34.041963	-118.256607	Ace Hotel  Los Angeles	destination charger	destination charger.png
45.5169406	-122.6805748	Smart Legal	coinmap	coinmap.png
45.5166922221	-122.679691315	David Mahat	coinmap	coinmap.png
45.5176045	-122.6778212	Robocoin ATM	coinmap	coinmap.png
45.513619	-122.680676	Hotel Modera	destination charger	destination charger.png
49.2662082	-123.1405922	Krystal Fit Studio	coinmap	coinmap.png
49.263089	-123.137586	Jordan's	destination charger	destination charger.png
47.6740138109	-116.782849431	Luke O'Dowd Securities Law	coinmap	coinmap.png
47.672468	-116.784484	Coeur D' Alene Resort	destination charger	destination charger.png
42.7847266	-88.4053201	The Shave Shop	coinmap	coinmap.png
42.7856734	-88.4057673	2894 On Main	coinmap	coinmap.png
42.785565	-88.405655	2894 on Main Cafe	destination charger	destination charger.png
34.0139474886	-118.49609971	Santa Monica Coworking	coinmap	coinmap.png
34.018311	-118.501067	The Huntley Hotel	destination charger	destination charger.png
39.7485699	-104.9993451	Supper Bell	coinmap	coinmap.png
39.7484846	-104.9996154	Rocky Mountain Seed Company Building	coinmap	coinmap.png
39.746352679	-104.996455908	Incredible Art Gallery	coinmap	coinmap.png
39.746368	-104.998439	Four Seasons Hotel Denver	destination charger	destination charger.png
32.7769870876	-79.9289005995	LiquidSelect, LLC	coinmap	coinmap.png
32.780654	-79.932352	Belmond Charleston Place	destination charger	destination charger.png
34.0277927	-118.4776619	Meridian Health Clinic - Acupuncture & Herbal Medicine	coinmap	coinmap.png
34.03032	-118.48186	Ambrose Hotel	destination charger	destination charger.png
44.9753941164	-93.2589483261	SUPER BOWL HOTELS	coinmap	coinmap.png
44.9803577	-93.2633657	Renaissance Minneapolis Hotel	destination charger	destination charger.png
37.6476414	-118.9877153	Our Peace of Mammoth - condo rental	coinmap	coinmap.png
37.64947	-118.986681	Westin Monache Resort	destination charger	destination charger.png
33.8490391	-84.3734598	Atlanta Tech Villiage	coinmap	coinmap.png
33.845377	-84.368627	InterContinental Buckhead Atlanta	destination charger	destination charger.png
43.6408425916	-79.3935585022	Metropolitan Pharmacy	coinmap	coinmap.png
43.6477622	-79.393995	Zinzan Studio Toronto	coinmap	coinmap.png
43.6449328	-79.3951153	Decentral + Bitcoin ATM	coinmap	coinmap.png
43.645631	-79.390857	Hotel Le Germain - Toronto	destination charger	destination charger.png
45.5000039	-73.5759289	Guichet Bitcoin Instacoin ATM - WrapCity Gourmet	coinmap	coinmap.png
45.499595	-73.5764734	Saco Hair Drummond	coinmap	coinmap.png
45.5000073	-73.5759034	Instacoin ATM	coinmap	coinmap.png
45.502638	-73.574251	Hotel Le Germain - Montreal	destination charger	destination charger.png
45.4924423815	-73.557742238	Guichet Bitcoin ATM @ World Gym Griffintown	coinmap	coinmap.png
45.4928052	-73.5570462	Alt Hotel - Montreal Griffintown	destination charger	destination charger.png
39.5248198995	-119.811626673	Beautiful Bearded Man	coinmap	coinmap.png
39.52788	-119.813754	Whitney Peak Hotel	destination charger	destination charger.png
34.067280714	-118.402608633	RODEO CONCIERGE INC	coinmap	coinmap.png
34.0666852456	-118.400044441	SUPER BOWL HOTELS	coinmap	coinmap.png
34.0685731	-118.4054183	Elite body sculpture	coinmap	coinmap.png
34.0698864	-118.4051584	NuLegal	coinmap	coinmap.png
34.0666534	-118.4010018	Beverly Wilshire, a Four Seasons Hotel	destination charger	destination charger.png
35.572302	-121.1120376	Mariner's Inn	coinmap	coinmap.png
35.576504	-121.113529	Blue Dolphin Inn	destination charger	destination charger.png
35.572302	-121.1120376	Mariner's Inn	coinmap	coinmap.png
35.573683	-121.112315	Sand Pebbles Inn	destination charger	destination charger.png
34.0985042	-118.3268528	Wynn Nail Spa	coinmap	coinmap.png
34.101608	-118.325804	W Hollywood Hotel and Residences	destination charger	destination charger.png
33.9582148	-83.3745041	Dynamite Clothing	coinmap	coinmap.png
33.9581335519	-83.3752065897	EasyBit's bitcoin ATM at Vape Dynamiks (Athens)	coinmap	coinmap.png
33.961983	-83.375885	Hotel Indigo - Athens	destination charger	destination charger.png
37.8065386	-122.4194931	NOMAD	coinmap	coinmap.png
37.805388	-122.423418	Fairmont Heritage Place Ghirardelli Square	destination charger	destination charger.png
39.5248198995	-119.811626673	Beautiful Bearded Man	coinmap	coinmap.png
39.528565	-119.815271	Eldorado Resort Casino Reno	destination charger	destination charger.png
25.7905598524	-80.1316970587	Happy Tax	coinmap	coinmap.png
25.7889948991	-80.1299214363	SUPER BOWL HOTELS	coinmap	coinmap.png
25.790823	-80.129116	The Ritz-Carlton, South Beach	destination charger	destination charger.png
36.9502283	-121.8737657	Natural Transformations Massage Therapy	coinmap	coinmap.png
36.9506523	-121.8769721	Seascape Beach Resort	destination charger	destination charger.png
35.6808434	-105.9385321	Capitol Computer of Santa Fe	coinmap	coinmap.png
35.683768	-105.938017	The Inn of The Five Graces	destination charger	destination charger.png
37.7895241	-122.4077704	My Doctor Medical Group	coinmap	coinmap.png
37.7942537009	-122.408638	CAFE	coinmap	coinmap.png
37.7889716539	-122.409507036	Startup Saturdays	coinmap	coinmap.png
37.7924958	-122.4100354	The Fairmont San Francisco	destination charger	destination charger.png
34.0873089	-118.3807483	Klucid	coinmap	coinmap.png
34.0932873	-118.3780461	Brain Guzzle Digital Marketing	coinmap	coinmap.png
34.091985	-118.377766	Sunset Marquis Hotel	destination charger	destination charger.png
39.9991059	-105.2539748	Moe's Original Bar B Que	coinmap	coinmap.png
39.999848816	-105.256158113	ModernTender	coinmap	coinmap.png
40.001616	-105.257982	Best Western Plus Boulder Inn	destination charger	destination charger.png
45.4950069671	-73.5797148943	Vape Nicotine Plus	coinmap	coinmap.png
45.5000039	-73.5759289	Guichet Bitcoin Instacoin ATM - WrapCity Gourmet	coinmap	coinmap.png
45.4964474	-73.578321	AutoCoinage Bitcoin ATM/Mackay Depanneur	coinmap	coinmap.png
45.4977937	-73.5803124	Cafe Aunja	coinmap	coinmap.png
45.499595	-73.5764734	Saco Hair Drummond	coinmap	coinmap.png
45.5000073	-73.5759034	Instacoin ATM	coinmap	coinmap.png
45.499921	-73.578476	The Ritz-Carlton Montreal	destination charger	destination charger.png
45.5169406	-122.6805748	Smart Legal	coinmap	coinmap.png
45.5166922221	-122.679691315	David Mahat	coinmap	coinmap.png
45.5123866	-122.6756475	Portland Marriott Downtown Waterfront	destination charger	destination charger.png
33.5875784679	130.398702621	Bic CAMERA Tenjin 2nd Store	coinmap	coinmap.png
33.589617	130.395604		destination charger	destination charger.png
-37.8135981987	144.973021746	Hempme	coinmap	coinmap.png
-37.8129455529	144.967979193	Hub Express	coinmap	coinmap.png
-37.8121699987	144.965318441	Mind Games	coinmap	coinmap.png
-37.8141745565	144.965880428	Mind Games	coinmap	coinmap.png
-37.8094922	144.9702081	Melbourne Marriott Hotel	destination charger	destination charger.png
35.6287343	-120.6887	Parts Oven	coinmap	coinmap.png
35.625553	-120.69206	Paso Robles Inn	destination charger	destination charger.png
48.4398916	-123.3680041	Sandman Hotel Victoria	coinmap	coinmap.png
48.4440229	-123.3674944	Comfort Inn & Suites Victoria	destination charger	destination charger.png
43.6507743	-79.3774171	Point Alliance	coinmap	coinmap.png
43.6489595614	-79.378028512	ZENZETA	coinmap	coinmap.png
43.649937	-79.380191	TRUMP Toronto International Hotel and Tower	destination charger	destination charger.png
34.0469941	-118.4633361	Scripting Your LifePlay - hypnosis	coinmap	coinmap.png
34.050187	-118.460342	Wilshire West Medical Tower	destination charger	destination charger.png
37.7937533	-122.401105	Diana Graue, Licensed Acupuncturist	coinmap	coinmap.png
37.7921625	-122.4038197	Capitol Hill Consultants LLC	coinmap	coinmap.png
37.7944910874	-122.403890491	RockIT CoLabs	coinmap	coinmap.png
37.7937071	-122.4042094	Pacific Tradewinds Hostel	coinmap	coinmap.png
37.7956032	-122.4037065	Y.E.A.H. Clinic	coinmap	coinmap.png
37.790559	-122.4023821	Bamboo Asia	coinmap	coinmap.png
37.79696	-122.4021345	Humble Bundle	coinmap	coinmap.png
37.7880606	-122.4010128	SC Sports Therapy	coinmap	coinmap.png
37.7897612	-122.4022864	Bamboo Asia	coinmap	coinmap.png
37.7948677	-122.403366	AcademyX Computer Training	coinmap	coinmap.png
37.7877738	-122.3998375	imPrint CP	coinmap	coinmap.png
37.7922062	-122.3981904	Raven Office Centers	coinmap	coinmap.png
37.793845	-122.4035253	Revestor	coinmap	coinmap.png
37.792442	-122.401039	Loews Regency San Francisco	destination charger	destination charger.png
37.7895241	-122.4077704	My Doctor Medical Group	coinmap	coinmap.png
37.7942537009	-122.408638	CAFE	coinmap	coinmap.png
37.7889716539	-122.409507036	Startup Saturdays	coinmap	coinmap.png
37.7871402301	-122.407967448	Simayof Jewelry	coinmap	coinmap.png
37.791596	-122.410385	InterContinental Mark Hopkins San Francisco	destination charger	destination charger.png
33.8332338	-116.5470962	The Jewelry Vault & Loan	coinmap	coinmap.png
33.8334033	-116.5470967	I Found	coinmap	coinmap.png
33.831533	-116.545469	Colony Palms Hotel	destination charger	destination charger.png
44.057587	-121.3124566	Phone Essence	coinmap	coinmap.png
44.057922	-121.312053	The Oxford Hotel	destination charger	destination charger.png
37.088316	-113.5871585	1LAW	coinmap	coinmap.png
37.088866	-113.584524	Best Western Plus Abbey Inn & Suites	destination charger	destination charger.png
43.6712086404	-79.3908119202	York Foreign Exchange	coinmap	coinmap.png
43.6715668	-79.3885207	Addison Cameron-Huff, Barrister & Solicitor	coinmap	coinmap.png
43.671853	-79.389513	Four Seasons Hotel Toronto	destination charger	destination charger.png
27.7120005	-97.3739824	REEDS Jewelers - La Palmera Mall	coinmap	coinmap.png
27.711	-97.371231	La Palmera Mall	destination charger	destination charger.png
37.7937533	-122.401105	Diana Graue, Licensed Acupuncturist	coinmap	coinmap.png
37.7921625	-122.4038197	Capitol Hill Consultants LLC	coinmap	coinmap.png
37.7944910874	-122.403890491	RockIT CoLabs	coinmap	coinmap.png
37.7937071	-122.4042094	Pacific Tradewinds Hostel	coinmap	coinmap.png
37.7956032	-122.4037065	Y.E.A.H. Clinic	coinmap	coinmap.png
37.790559	-122.4023821	Bamboo Asia	coinmap	coinmap.png
37.79696	-122.4021345	Humble Bundle	coinmap	coinmap.png
37.7880606	-122.4010128	SC Sports Therapy	coinmap	coinmap.png
37.7897612	-122.4022864	Bamboo Asia	coinmap	coinmap.png
37.7948677	-122.403366	AcademyX Computer Training	coinmap	coinmap.png
37.7877738	-122.3998375	imPrint CP	coinmap	coinmap.png
37.7946398	-122.3952157	Over The Moon Ice Cream & Frozen Yogurt	coinmap	coinmap.png
37.7922062	-122.3981904	Raven Office Centers	coinmap	coinmap.png
37.793845	-122.4035253	Revestor	coinmap	coinmap.png
37.792496	-122.39998	345 California Center Parking Garage	destination charger	destination charger.png
37.3364938	-121.8902734	Craze 4 Toys	coinmap	coinmap.png
37.3327794	-121.8892745	The Fairmont San Jose	destination charger	destination charger.png
25.7743346	-80.1896167	The Funes Law Firm	coinmap	coinmap.png
25.7759269	-80.1901623	Bitnoni	coinmap	coinmap.png
25.7753683066	-80.1887369156	Bitstop	coinmap	coinmap.png
25.772724	-80.185998	InterContinental Miami	destination charger	destination charger.png
37.7895241	-122.4077704	My Doctor Medical Group	coinmap	coinmap.png
37.7809228	-122.4028627	Synergy Massage & Wellness	coinmap	coinmap.png
37.7880606	-122.4010128	SC Sports Therapy	coinmap	coinmap.png
37.7842531017	-122.403273582	Coinme Bitcoin ATM	coinmap	coinmap.png
37.7897612	-122.4022864	Bamboo Asia	coinmap	coinmap.png
37.7871402301	-122.407967448	Simayof Jewelry	coinmap	coinmap.png
37.7877738	-122.3998375	imPrint CP	coinmap	coinmap.png
37.7868721	-122.3995645	Wikimedia Foundation	coinmap	coinmap.png
37.7842658205	-122.406460047	Coinme Bitcoin ATM	coinmap	coinmap.png
37.7849	-122.4043	San Francisco Marriott Marquis	destination charger	destination charger.png
33.767091	-118.1923831	The BitPros	coinmap	coinmap.png
33.7648109809	-118.194517493	Athena Bitcoin Inc.	coinmap	coinmap.png
33.767198	-118.191987	Renaissance Long Beach Hotel	destination charger	destination charger.png
30.2673145706	-97.7497386932	BRANDWORXAustin.com	coinmap	coinmap.png
30.266666	-97.7420565	Bitcoin ATM	coinmap	coinmap.png
30.2692949	-97.7425595	Cozzoli's Pizza	coinmap	coinmap.png
30.2703585081	-97.7419763803	Ready To Go Survival, Inc.	coinmap	coinmap.png
30.2689156	-97.7428345	Thai Passion - Downtown	coinmap	coinmap.png
30.265397	-97.746566	W Austin Hotel & Residences	destination charger	destination charger.png
49.8920081	-119.493605	Bitcoiniacs - The Bitcoin Store	coinmap	coinmap.png
49.8915172	-119.4969177	Delta Grand Okanagan Resort	destination charger	destination charger.png
30.2839276688	-97.7422499657	EasyBit ATM	coinmap	coinmap.png
30.2842334049	-97.7447283268	Coinme Bitcoin ATM	coinmap	coinmap.png
30.2828492	-97.7422705	Emo's Kitchen	coinmap	coinmap.png
30.2867283	-97.7449806	Tower Pizza Bistro	coinmap	coinmap.png
30.2822276	-97.7422902	Brave New Books	coinmap	coinmap.png
30.2869407	-97.7449912	Fresh Health Cafe	coinmap	coinmap.png
30.283018	-97.745736	Hotel Ella	destination charger	destination charger.png
53.5374604	-113.4988643	CKSoftware Inc.	coinmap	coinmap.png
53.5421516	-113.5008612	Coast Edmonton Plaza Hotel	destination charger	destination charger.png
32.7793910543	-96.8060946465	Disrupt Hub	coinmap	coinmap.png
32.776235	-96.809281	Hyatt Regency Dallas	destination charger	destination charger.png
49.202545246	-122.909604907	New Westminster Massage Therapy	coinmap	coinmap.png
49.200092	-122.9115154	RE-UP BBQ	coinmap	coinmap.png
49.199792	-122.912603	Inn at the Quay	destination charger	destination charger.png
34.0139474886	-118.49609971	Santa Monica Coworking	coinmap	coinmap.png
34.009207	-118.492867	Loews Santa Monica Beach Hotel	destination charger	destination charger.png
27.9574722	-82.5235309	Continental Wholesale Diamonds	coinmap	coinmap.png
27.960272	-82.518576	Eddie V's Prime Seafood	destination charger	destination charger.png
40.7596269	-73.97758	S2 Entertainment Company (S2e)	coinmap	coinmap.png
40.756669	-73.9768961	Cosmetic & Implant Dental Associates	coinmap	coinmap.png
40.752392	-73.9734902	Awesomeness Reminders, LLC	coinmap	coinmap.png
40.7566666	-73.9769715	Pradeep Atluri, MD, PhD (Psychiatrist)	coinmap	coinmap.png
40.7615609255	-73.978843689	47 Venues	coinmap	coinmap.png
40.756722	-73.97406	Waldorf Astoria New York	destination charger	destination charger.png
24.5502460729	-81.7980194092	NocRoom PBX VOIP Systems	coinmap	coinmap.png
24.553609	-81.794764	Silver Palms Inn	destination charger	destination charger.png
37.6476414	-118.9877153	Our Peace of Mammoth - condo rental	coinmap	coinmap.png
37.651321	-118.986123	The Village Lodge at Mammoth	destination charger	destination charger.png
-33.8513856127	151.205284595	Retro Girl	coinmap	coinmap.png
-33.855584	151.209488	Park Hyatt Sydney	destination charger	destination charger.png
-37.887159	145.0821631	Mr Pilgrim	coinmap	coinmap.png
-37.8838685	145.0782706	:: Bitcoin ATM ::  Operated by Cryptolink	coinmap	coinmap.png
-37.886676	145.081194	Chadstone Shopping Centre -  Ground Level	destination charger	destination charger.png
32.7179229387	-117.157752514	The Crypto Lawyers	coinmap	coinmap.png
32.7179729	-117.1578839	Pasha Law	coinmap	coinmap.png
32.7141993	-117.1599549	Logan Fairfax Law	coinmap	coinmap.png
32.7154106	-117.1590474	Algomatik - Mobile app development	coinmap	coinmap.png
32.7190764	-117.1613399	ZENTHREE - Web Design	coinmap	coinmap.png
32.7111675	-117.1603094	Nikki Fine Jewelers	coinmap	coinmap.png
32.715797	-117.161544	US Grant	destination charger	destination charger.png
38.9488525	-92.3284735	BBCII	coinmap	coinmap.png
38.9517016	-92.3269704	Formosa Restaurant	coinmap	coinmap.png
38.950837	-92.328797	The Tiger Hotel	destination charger	destination charger.png
40.7616461	-111.8885341	Pie Hole	coinmap	coinmap.png
40.7617721	-111.8856369	The Parlour Yoga Studio	coinmap	coinmap.png
40.75744	-111.890545	Grand America Hotel	destination charger	destination charger.png
33.5024598827	-111.926833391	Lotzar Law Firm, P.C.	coinmap	coinmap.png
33.501485	-111.924058	W Scottsdale	destination charger	destination charger.png
22.4907306548	113.92169416	Willy's Crab Shack	coinmap	coinmap.png
22.4882772111	113.91740799	Bionic Brew Shekou	coinmap	coinmap.png
22.489075	113.919178	Bay 1979	destination charger	destination charger.png
22.5363615	113.9501413	Kejie Pcb manufactures small/large-volume of rigid and flexible PCB and PCB Assembly with guaranteed quality and on-time deliver	coinmap	coinmap.png
22.5392	113.952279	China Merchants Securities Shenzhen Gaoxin Road	destination charger	destination charger.png
34.3415287	108.940261	Young Pioneer Tours	coinmap	coinmap.png
34.341694	108.936976	Northwest International Financial Center	destination charger	destination charger.png
31.202780931	121.583928466	IC Coffee Shop	coinmap	coinmap.png
31.198964	121.584395	Shanghai Parkyard Hotel	destination charger	destination charger.png
33.9839594	-118.4591643	Graphics 101	coinmap	coinmap.png
33.982146	-118.459493	Marina del Rey Marriott	destination charger	destination charger.png
49.2832518	-123.1128763	Decentral.Bangtown	coinmap	coinmap.png
49.2859187	-123.1173439	BodyComp Imaging	coinmap	coinmap.png
49.2844217132	-123.121622801	Solimano Law	coinmap	coinmap.png
49.2851281	-123.1158768	Resource World Magazine Inc.	coinmap	coinmap.png
49.2832459565	-123.118232489	Canadian immigration & Citizenship Services	coinmap	coinmap.png
49.2844392093	-123.112342358	SFU Bookstore Vancouver	coinmap	coinmap.png
49.288078	-123.117272	Fairmont Pacific Rim	destination charger	destination charger.png
32.8467915	-117.271605	Barc Inc.	coinmap	coinmap.png
32.847417	-117.275211	Grande Colonial Hotel	destination charger	destination charger.png
37.2713612	-107.8812144	Appraisal Solutions, LLC	coinmap	coinmap.png
37.269852	-107.885496	DoubleTree by Hilton Durango	destination charger	destination charger.png
32.7166772567	-117.17004776	NocRoom Voice & Data	coinmap	coinmap.png
32.7176572	-117.1669007	W San Diego	destination charger	destination charger.png
47.6117688048	-122.337296605	Coinme Bitcoin ATM	coinmap	coinmap.png
47.6045643878	-122.330682278	Coinme Bitcoin ATM	coinmap	coinmap.png
47.6097909	-122.3366622	Nesbit's Fine Watch Service	coinmap	coinmap.png
47.6069606	-122.3332006	Phillip Morgan Photography	coinmap	coinmap.png
47.608043	-122.334072	The Fairmont Olympic Hotel	destination charger	destination charger.png
34.0666852456	-118.400044441	SUPER BOWL HOTELS	coinmap	coinmap.png
34.06794	-118.397163	AKA Beverly Hills	destination charger	destination charger.png
45.5060912513	-73.5617387295	Guichet Bitcoin ATM @ Dpanneur Express Services	coinmap	coinmap.png
45.504175	-73.5624	Hotel Le Dauphin Montreal	destination charger	destination charger.png
34.067280714	-118.402608633	RODEO CONCIERGE INC	coinmap	coinmap.png
34.0666852456	-118.400044441	SUPER BOWL HOTELS	coinmap	coinmap.png
34.0685731	-118.4054183	Elite body sculpture	coinmap	coinmap.png
34.0698864	-118.4051584	NuLegal	coinmap	coinmap.png
34.068876	-118.402376	Luxe Sunset Blvd Hotel	destination charger	destination charger.png
32.8711532064	-117.211825848	Coinme Bitcoin ATM	coinmap	coinmap.png
32.874767	-117.208742	Embassy Suites Hotel - San Diego, La Jolla	destination charger	destination charger.png
40.7674279109	-73.9838647842	PinkSundaysStudio	coinmap	coinmap.png
40.7615609255	-73.978843689	47 Venues	coinmap	coinmap.png
40.765844	-73.982481	Quik Park Broadway Garage LLC	destination charger	destination charger.png
40.7420588232	-73.9998346567	The Eco Laundry Company	coinmap	coinmap.png
40.746847	-74.001816	Quik Park West 23rd Street Garage LLC	destination charger	destination charger.png
40.7066535	-74.0123807	The King's College	coinmap	coinmap.png
40.70663	-74.016916	Quik Park Little West LLC	destination charger	destination charger.png
40.7596269	-73.97758	S2 Entertainment Company (S2e)	coinmap	coinmap.png
40.764812	-73.9751034	Park South Dentistry	coinmap	coinmap.png
40.7615609255	-73.978843689	47 Venues	coinmap	coinmap.png
40.764259	-73.974972	Quik Park West 57 LLC	destination charger	destination charger.png
40.7525424	-73.981445	The Forefront Law Group	coinmap	coinmap.png
40.7524774	-73.984652	EVR NYC	coinmap	coinmap.png
40.7549619796	-73.9795088768	Toggle Web Media Design	coinmap	coinmap.png
40.752067	-73.9820787	Lord & Taylor	coinmap	coinmap.png
40.755856	-73.984313	Quik Park 1133 Garage LLC	destination charger	destination charger.png
40.7420588232	-73.9998346567	The Eco Laundry Company	coinmap	coinmap.png
40.738673108	-74.0032196045	NocRoom Voice & Data	coinmap	coinmap.png
40.742407	-73.999351	iPark NYC 250 West Parking	destination charger	destination charger.png
40.7275685	-73.9886638	Glasnost Precious Metals	coinmap	coinmap.png
40.730487	-73.993569	Champion Parking 60 E 8th	destination charger	destination charger.png
40.7275685	-73.9886638	Glasnost Precious Metals	coinmap	coinmap.png
40.728287	-73.992746	Parkit 403 Lafayette St.	destination charger	destination charger.png
40.7259692	-74.001121	Bapple Real Estate	coinmap	coinmap.png
40.7251122625	-74.0042388439	Mega Food Truck	coinmap	coinmap.png
40.7261936543	-74.0007519722	Bathmate Hydromax Review	coinmap	coinmap.png
40.7252626	-74.0042317	Desi Food Truck	coinmap	coinmap.png
40.721658	-74.004402	Parkit 10 Wooster St.	destination charger	destination charger.png
37.6344556167	-118.991546631	goldengatesgreenest.com	coinmap	coinmap.png
37.6355	-118.99	Juniper Springs Resort	destination charger	destination charger.png
40.7763877	-73.9606961	HM Acupuncture in Upper East Side NYC	coinmap	coinmap.png
40.7752947539	-73.9552919519	The Fitness Office	coinmap	coinmap.png
40.7733329	-73.9633859	Gallery Rene Mele	coinmap	coinmap.png
40.773415	-73.959234	iPark NYC E 77th Street	destination charger	destination charger.png
40.738673108	-74.0032196045	NocRoom Voice & Data	coinmap	coinmap.png
40.738733	-74.006009	iPark NYC 61 Jane Street	destination charger	destination charger.png
40.2339367	-111.659247	Station 22 Cafe	coinmap	coinmap.png
40.2341108	-111.6589118	Black Sheep Cafe	coinmap	coinmap.png
40.2338929	-111.6610053	Wallaroo Media	coinmap	coinmap.png
40.2387395	-111.6589555	Coding Campus	coinmap	coinmap.png
40.2339429	-111.6589718	Knives4Bitcoin	coinmap	coinmap.png
40.234985	-111.6607	Provo Marriott Hotel & Conference Center	destination charger	destination charger.png
40.7356936987	-73.9893633127	Acupuncture and Massage	coinmap	coinmap.png
40.7389191	-73.9907073	Steve Alper DMD	coinmap	coinmap.png
40.736811501	-73.9849054813	The Eco Laundry Company	coinmap	coinmap.png
40.735736	-73.988745	Champion Parking E 16th Street	destination charger	destination charger.png
40.7251122625	-74.0042388439	Mega Food Truck	coinmap	coinmap.png
40.7252626	-74.0042317	Desi Food Truck	coinmap	coinmap.png
40.729364	-74.008513	Parkit 575 Washington	destination charger	destination charger.png
38.9045126	-77.0369921	EchoDitto	coinmap	coinmap.png
38.9023077	-77.0329583	FutureGen Capital	coinmap	coinmap.png
38.9005107	-77.0369492	The Hay-Adams	destination charger	destination charger.png
34.0586682335	-118.445298672	Jeremy Martinez, MD	coinmap	coinmap.png
34.06329	-118.441191	W Hotel Los Angeles - West Beverly Hills	destination charger	destination charger.png
40.7674279109	-73.9838647842	PinkSundaysStudio	coinmap	coinmap.png
40.7615609255	-73.978843689	47 Venues	coinmap	coinmap.png
40.764748	-73.982676	Champion Parking 230 W 55th Street	destination charger	destination charger.png
40.7929741362	-73.9685064554	Phenomenal You Psychological Services	coinmap	coinmap.png
40.788008	-73.971611	iPark NYC 88th Street Garage	destination charger	destination charger.png
40.7674279109	-73.9838647842	PinkSundaysStudio	coinmap	coinmap.png
40.7615609255	-73.978843689	47 Venues	coinmap	coinmap.png
40.764261	-73.982974	Residence Inn New York Manhattan	destination charger	destination charger.png
42.1983035	-122.7162853	Blue Greek on Granite	coinmap	coinmap.png
42.1971371918	-122.714892626	Essential Oil Wizardry	coinmap	coinmap.png
42.199728	-122.715649	Plaza Inn & Suite Ashland Creek	destination charger	destination charger.png
40.7858462289	-73.951356411	786 Candy Story	coinmap	coinmap.png
40.783536	-73.949507	iPark NYC The Carnegie Garage	destination charger	destination charger.png
40.7059776	-74.0115846	Bitcoin Center NYC	coinmap	coinmap.png
40.7058760007	-74.0103167295	The Bitcoin Store -	coinmap	coinmap.png
40.7055845	-74.0105097	MyUSACorporation.com	coinmap	coinmap.png
40.7061484617	-74.0112662315	Bitcoin Seattle	coinmap	coinmap.png
40.7096415573	-74.0101128817	Provide Support, LLC	coinmap	coinmap.png
40.7087591511	-74.0052741766	Dr Andrew Black Chiropractor	coinmap	coinmap.png
40.7046194123	-74.0113627911	YOKU Cloud Services	coinmap	coinmap.png
40.705782469	-74.0114808083	Bitcoin Rehab	coinmap	coinmap.png
40.7074069	-74.0108841	Robert J. Feldman attorney-at-law	coinmap	coinmap.png
40.7066535	-74.0123807	The King's College	coinmap	coinmap.png
40.704776	-74.008276	iPark NYC 75 Wall Street	destination charger	destination charger.png
33.8490391	-84.3734598	Atlanta Tech Villiage	coinmap	coinmap.png
33.844994	-84.370185	Grand Hyatt Atlanta in Buckhead	destination charger	destination charger.png
25.6694271	-80.2857192	Babe Froman Fine Sausages	coinmap	coinmap.png
25.668996	-80.28516	Pinecrest Gardens	destination charger	destination charger.png
43.6507743	-79.3774171	Point Alliance	coinmap	coinmap.png
43.6489595614	-79.378028512	ZENZETA	coinmap	coinmap.png
43.648793	-79.378011	One King West Hotel & Residence	destination charger	destination charger.png
-37.8135981987	144.973021746	Hempme	coinmap	coinmap.png
-37.8129455529	144.967979193	Hub Express	coinmap	coinmap.png
-37.8141745565	144.965880428	Mind Games	coinmap	coinmap.png
-37.810074	144.970477	Secure Parking - GLevel - 260 & 261	destination charger	destination charger.png
-37.8176231	144.9678882	Saang Accessories	coinmap	coinmap.png
-37.8156578095	144.966310859	Bitcoin Dealers	coinmap	coinmap.png
-37.8175628	144.9673906	Helveticade Design Studio	coinmap	coinmap.png
-37.8224187	144.964982	Coinstation	coinmap	coinmap.png
-37.8141745565	144.965880428	Mind Games	coinmap	coinmap.png
-37.818269	144.964026	Secure Parking - L1 - 13 & 14	destination charger	destination charger.png
-27.4684688153	153.027700782	Di Vine Hair Brisbane	coinmap	coinmap.png
-27.4670028305	153.028001189	The Roll Shop	coinmap	coinmap.png
-27.4669361944	153.030050397	Living Room Of Satoshi	coinmap	coinmap.png
-27.4695968488	153.025576472	Xennox Diamonds	coinmap	coinmap.png
-27.4677073	153.0261973	Secure Parking - QueensPlaza - L2	destination charger	destination charger.png
-27.4735234576	153.028537631	Coinsafe Australia	coinmap	coinmap.png
-27.4684688153	153.027700782	Di Vine Hair Brisbane	coinmap	coinmap.png
-27.4670028305	153.028001189	The Roll Shop	coinmap	coinmap.png
-27.4669361944	153.030050397	Living Room Of Satoshi	coinmap	coinmap.png
-27.4695968488	153.025576472	Xennox Diamonds	coinmap	coinmap.png
-27.470077	153.026303	Secure Parking - Level 4 - Wintergarden	destination charger	destination charger.png
-27.4684688153	153.027700782	Di Vine Hair Brisbane	coinmap	coinmap.png
-27.4670028305	153.028001189	The Roll Shop	coinmap	coinmap.png
-27.4669361944	153.030050397	Living Room Of Satoshi	coinmap	coinmap.png
-27.4695968488	153.025576472	Xennox Diamonds	coinmap	coinmap.png
-27.465924	153.028141	Secure Parking -  Level 1 - Post Office Square	destination charger	destination charger.png
40.7674279109	-73.9838647842	PinkSundaysStudio	coinmap	coinmap.png
40.7622069694	-73.9880597591	esalenmassage	coinmap	coinmap.png
40.76696	-73.983569	Champion Parking W 57th Street	destination charger	destination charger.png
24.5502460729	-81.7980194092	NocRoom PBX VOIP Systems	coinmap	coinmap.png
24.553586	-81.795731	The Mermaid and The Alligator, a Select Registry Property	destination charger	destination charger.png
40.7059776	-74.0115846	Bitcoin Center NYC	coinmap	coinmap.png
40.7058760007	-74.0103167295	The Bitcoin Store -	coinmap	coinmap.png
40.7055845	-74.0105097	MyUSACorporation.com	coinmap	coinmap.png
40.7061484617	-74.0112662315	Bitcoin Seattle	coinmap	coinmap.png
40.7096415573	-74.0101128817	Provide Support, LLC	coinmap	coinmap.png
40.7087591511	-74.0052741766	Dr Andrew Black Chiropractor	coinmap	coinmap.png
40.7046194123	-74.0113627911	YOKU Cloud Services	coinmap	coinmap.png
40.705782469	-74.0114808083	Bitcoin Rehab	coinmap	coinmap.png
40.7074069	-74.0108841	Robert J. Feldman attorney-at-law	coinmap	coinmap.png
40.7066535	-74.0123807	The King's College	coinmap	coinmap.png
40.705115	-74.008089	Andaz Wall Street	destination charger	destination charger.png
24.5502460729	-81.7980194092	NocRoom PBX VOIP Systems	coinmap	coinmap.png
24.554263	-81.800295	The Gardens Hotel	destination charger	destination charger.png
40.7632804	-73.9626658	The Focused Stock Trader Publishing	coinmap	coinmap.png
40.767743	-73.963665	Prime Parking Systems - 155 E 68th Street	destination charger	destination charger.png
49.2839789	-123.1251129	Digital Currency Profits	coinmap	coinmap.png
49.2859187	-123.1173439	BodyComp Imaging	coinmap	coinmap.png
49.2849221011	-123.123216033	Lead Mate	coinmap	coinmap.png
49.2886327	-123.1259515	Zyza Yoga Clothing & Active Wear	coinmap	coinmap.png
49.2844217132	-123.121622801	Solimano Law	coinmap	coinmap.png
49.2860061	-123.1267009	Steamrollers - burritos	coinmap	coinmap.png
49.2884189	-123.1221991	Coast Coal Harbour Hotel	destination charger	destination charger.png
29.4270451	-98.4922547	CryptoTrustPoint	coinmap	coinmap.png
29.425396	-98.488039	Hyatt Regency San Antonio Riverwalk	destination charger	destination charger.png
40.7596269	-73.97758	S2 Entertainment Company (S2e)	coinmap	coinmap.png
40.756669	-73.9768961	Cosmetic & Implant Dental Associates	coinmap	coinmap.png
40.764812	-73.9751034	Park South Dentistry	coinmap	coinmap.png
40.7566666	-73.9769715	Pradeep Atluri, MD, PhD (Psychiatrist)	coinmap	coinmap.png
40.7615609255	-73.978843689	47 Venues	coinmap	coinmap.png
40.7615893	-73.9752106	The Peninsula Hotel New York	destination charger	destination charger.png
49.280759	-123.1224298	Bitcoin ATM - Waves Coffee	coinmap	coinmap.png
49.2839789	-123.1251129	Digital Currency Profits	coinmap	coinmap.png
49.2859187	-123.1173439	BodyComp Imaging	coinmap	coinmap.png
49.2849221011	-123.123216033	Lead Mate	coinmap	coinmap.png
49.2790500963	-123.119498491	Fob Clone	coinmap	coinmap.png
49.2886327	-123.1259515	Zyza Yoga Clothing & Active Wear	coinmap	coinmap.png
49.2807244	-123.1224892	Waves Coffee House	coinmap	coinmap.png
49.2844217132	-123.121622801	Solimano Law	coinmap	coinmap.png
49.2808838606	-123.119316101	India Gate	coinmap	coinmap.png
49.2824801	-123.1236947	Don Francesco Ristorante	coinmap	coinmap.png
49.2832459565	-123.118232489	Canadian immigration & Citizenship Services	coinmap	coinmap.png
49.2823432	-123.116161	The Fall Tattooing	coinmap	coinmap.png
49.2806931	-123.1225589	Bitbulls - (Coinkite Terminal Location)	coinmap	coinmap.png
49.283791	-123.120989	The Fairmont Hotel Vancouver	destination charger	destination charger.png
40.7596269	-73.97758	S2 Entertainment Company (S2e)	coinmap	coinmap.png
40.764812	-73.9751034	Park South Dentistry	coinmap	coinmap.png
40.7615609255	-73.978843689	47 Venues	coinmap	coinmap.png
40.762855	-73.977795	Icon Parking 1350 Avenue of the Americas	destination charger	destination charger.png
37.6476414	-118.9877153	Our Peace of Mammoth - condo rental	coinmap	coinmap.png
37.6499	-118.985167	80|50 Mammoth	destination charger	destination charger.png
49.2790500963	-123.119498491	Fob Clone	coinmap	coinmap.png
49.2766706	-123.1193282	MJ Seeds Canada	coinmap	coinmap.png
49.2751409	-123.1269837	Seymour Wellness Society	coinmap	coinmap.png
49.2754336	-123.120264	Fullboar Creative	coinmap	coinmap.png
49.2771987651	-123.118565083	Active Body Nutrition	coinmap	coinmap.png
49.274642	-123.122561	OPUS Hotel Vancouver	destination charger	destination charger.png
-37.83049	144.956894	The South Melbourne Trader	coinmap	coinmap.png
-37.822565138	144.958205223	Uber Clean House	coinmap	coinmap.png
-37.825511	144.957692	Crown Metropol Melbourne	destination charger	destination charger.png
43.6563178	-79.3841128	Toronto Coach Terminal	coinmap	coinmap.png
43.6587158	-79.3830855	Chelsea Hotel	destination charger	destination charger.png
48.4245694	-123.363576	BitSent Bitcoin ATM	coinmap	coinmap.png
48.4245563	-123.3637081	The Good Planet Company	coinmap	coinmap.png
48.422647	-123.3639408	Bitcoin ATM	coinmap	coinmap.png
48.4220074	-123.364496	Chateau Victoria Hotel & Suites	destination charger	destination charger.png
34.0985042	-118.3268528	Wynn Nail Spa	coinmap	coinmap.png
34.099893	-118.325744	1600 Vine Parking Garage	destination charger	destination charger.png
47.44006	-70.5044387	Boutique La Lavandiere	coinmap	coinmap.png
47.435815	-70.505087	Le Germain Hotel Charlevoix	destination charger	destination charger.png
42.9817011972	-70.9471750259	La Cascade du Chocolat	coinmap	coinmap.png
42.9810318	-70.9461109	Inn by the Bandstand, a Select Registry Property	destination charger	destination charger.png
40.7596269	-73.97758	S2 Entertainment Company (S2e)	coinmap	coinmap.png
40.7674279109	-73.9838647842	PinkSundaysStudio	coinmap	coinmap.png
40.7615609255	-73.978843689	47 Venues	coinmap	coinmap.png
40.763279	-73.98086	Champion Parking W 53rd Street	destination charger	destination charger.png
40.7818900115	-73.9758825302	Astro West Fine Minerals, Fossils, and Meteorites	coinmap	coinmap.png
40.781547	-73.980475	Champion Parking W 76th Street	destination charger	destination charger.png
40.7763877	-73.9606961	HM Acupuncture in Upper East Side NYC	coinmap	coinmap.png
40.779211	-73.960949	iPark NYC 1025 83rd	destination charger	destination charger.png
22.2998521238	114.173671603	Otcxpert	coinmap	coinmap.png
22.2980752808	114.178531766	LivingHouseOnline	coinmap	coinmap.png
22.2998179	114.1785834	Hong Kong Massage	coinmap	coinmap.png
22.298985	114.1743984	Raja Fashions	coinmap	coinmap.png
22.2993607645	114.174959064	Bitcoinnect	coinmap	coinmap.png
22.297714	114.174653	Hotel Panorama by Rhombus	destination charger	destination charger.png
-27.4735234576	153.028537631	Coinsafe Australia	coinmap	coinmap.png
-27.4684688153	153.027700782	Di Vine Hair Brisbane	coinmap	coinmap.png
-27.4670028305	153.028001189	The Roll Shop	coinmap	coinmap.png
-27.4695968488	153.025576472	Xennox Diamonds	coinmap	coinmap.png
-27.470107	153.023998	Next Hotel Brisbane	destination charger	destination charger.png
37.444714	-122.1614516	Coupa Cafe	coinmap	coinmap.png
37.445468	-122.1601897	Curry Up Now	coinmap	coinmap.png
37.443601	-122.161516	The Epiphany Hotel	destination charger	destination charger.png
-33.8732304813	151.207237244	David Mahat	coinmap	coinmap.png
-33.8669506	151.2086247	Discreet Bullion	coinmap	coinmap.png
-33.864633963	151.20722115	Rejuvenation Clinics of Australia	coinmap	coinmap.png
-33.8694218	151.2051817	Spawn Point Small Bar	coinmap	coinmap.png
-33.8694276	151.2048541	Since I Left You	coinmap	coinmap.png
-33.8669902969	151.208546162	Bitcoin Dealers	coinmap	coinmap.png
-33.8676317073	151.208572984	VINNER PTY LTD	coinmap	coinmap.png
-33.8708965899	151.206121445	Independent Reserve	coinmap	coinmap.png
-33.8690049	151.2061917	The SG	coinmap	coinmap.png
-33.869059	151.208853	Westfield Sydney - Valet Parking	destination charger	destination charger.png
34.0503837837	-118.251342773	NocRoom PBX VOIP Systems	coinmap	coinmap.png
34.0491392685	-118.254218102	Bitcoin Adult Store	coinmap	coinmap.png
34.0478413975	-118.256320953	NocRoom Networks	coinmap	coinmap.png
34.0479480725	-118.258643746	Coinme Bitcoin ATM	coinmap	coinmap.png
34.052495	-118.255408	The Westin Bonaventure Hotel & Suites	destination charger	destination charger.png
33.9839945333	-117.373530865	Mind & Mill	coinmap	coinmap.png
33.986065	-117.372628	Marriott Riverside at the Convention Center	destination charger	destination charger.png
49.8973665	-97.1392924	Winnipeg Technology & Computer Renewal Express	coinmap	coinmap.png
49.893411	-97.138906	Winnipeg Square Parkade	destination charger	destination charger.png
43.6712086404	-79.3908119202	York Foreign Exchange	coinmap	coinmap.png
43.670651	-79.39394	The Hazelton Hotel	destination charger	destination charger.png
40.7763877	-73.9606961	HM Acupuncture in Upper East Side NYC	coinmap	coinmap.png
40.7733329	-73.9633859	Gallery Rene Mele	coinmap	coinmap.png
40.77438	-73.963157	The Carlyle Hotel, A Rosewood Hotel	destination charger	destination charger.png
45.5919785	-73.5815241	Instacoin Bitcoin ATM - March aux Puces Mtropolitain (Touchez, kiosk 633, Section Rouge)	coinmap	coinmap.png
45.595963	-73.577292	Restaurant A La Vieille Cheminee	destination charger	destination charger.png
30.266666	-97.7420565	Bitcoin ATM	coinmap	coinmap.png
30.2649886978	-97.7397876978	Lux Limo	coinmap	coinmap.png
30.2692949	-97.7425595	Cozzoli's Pizza	coinmap	coinmap.png
30.2703585081	-97.7419763803	Ready To Go Survival, Inc.	coinmap	coinmap.png
30.2689156	-97.7428345	Thai Passion - Downtown	coinmap	coinmap.png
30.269491	-97.742266	InterContinental Stephen F Austin Hotel	destination charger	destination charger.png
22.2998521238	114.173671603	Otcxpert	coinmap	coinmap.png
22.298985	114.1743984	Raja Fashions	coinmap	coinmap.png
22.2993607645	114.174959064	Bitcoinnect	coinmap	coinmap.png
22.300565	114.172485	Mira Place Carpark	destination charger	destination charger.png
-36.7596750049	144.278206229	CMather Web Development	coinmap	coinmap.png
-36.761874	144.27746	The Good Loaf - Sourdough Bakery & Cafe	destination charger	destination charger.png
43.7565153222	-79.4738906622	Toronto Brewing - Homebrew Supply Store	coinmap	coinmap.png
43.758632	-79.470124	Johnvince Foods - North York	destination charger	destination charger.png
49.2900061745	-123.133478165	Cameron Taylor	coinmap	coinmap.png
49.2894008	-123.1337042	MB Migration Services (Canada) Inc.	coinmap	coinmap.png
49.2917388	-123.135607	Times Square Suites Hotel	destination charger	destination charger.png
38.9045126	-77.0369921	EchoDitto	coinmap	coinmap.png
38.9023077	-77.0329583	FutureGen Capital	coinmap	coinmap.png
38.9021295	-77.0361522	The St. Regis Washington D.C.	destination charger	destination charger.png
47.6117688048	-122.337296605	Coinme Bitcoin ATM	coinmap	coinmap.png
47.6097909	-122.3366622	Nesbit's Fine Watch Service	coinmap	coinmap.png
47.6100335	-122.3399741	Gearbox Photography	coinmap	coinmap.png
47.6069606	-122.3332006	Phillip Morgan Photography	coinmap	coinmap.png
47.610166	-122.335179	Motif Seattle	destination charger	destination charger.png
35.6808434	-105.9385321	Capitol Computer of Santa Fe	coinmap	coinmap.png
35.685123	-105.937455	The Inn and Spa at Loretto	destination charger	destination charger.png
37.203905	-93.2872126	Pizza Habit	coinmap	coinmap.png
37.207119	-93.291212	Hotel Vandivort	destination charger	destination charger.png
34.067280714	-118.402608633	RODEO CONCIERGE INC	coinmap	coinmap.png
34.0666852456	-118.400044441	SUPER BOWL HOTELS	coinmap	coinmap.png
34.0685731	-118.4054183	Elite body sculpture	coinmap	coinmap.png
34.0698864	-118.4051584	NuLegal	coinmap	coinmap.png
34.068903	-118.402524	Luxe Rodeo Drive Hotel	destination charger	destination charger.png
41.9839942709	-87.8562927246	Fasttech.com	coinmap	coinmap.png
41.981019	-87.85953	Hyatt Regency O'Hare	destination charger	destination charger.png
45.4957267	-73.5681774	Red Rhino Recording	coinmap	coinmap.png
45.5000039	-73.5759289	Guichet Bitcoin Instacoin ATM - WrapCity Gourmet	coinmap	coinmap.png
45.4971074	-73.5703698	BitHost	coinmap	coinmap.png
45.501647	-73.568622	Me Louis Sirois, LL.B. avocat	coinmap	coinmap.png
45.499595	-73.5764734	Saco Hair Drummond	coinmap	coinmap.png
45.5000073	-73.5759034	Instacoin ATM	coinmap	coinmap.png
45.49682	-73.573009	Hotel Le Crystal	destination charger	destination charger.png
30.2586145	-97.7385885	Art of Tacos	coinmap	coinmap.png
30.266666	-97.7420565	Bitcoin ATM	coinmap	coinmap.png
30.2649886978	-97.7397876978	Lux Limo	coinmap	coinmap.png
30.264266	-97.741411	Mai Thai	coinmap	coinmap.png
30.2570469559	-97.7391707897	Stasis Cosmetics	coinmap	coinmap.png
30.26197	-97.742421	Four Seasons Hotel Austin	destination charger	destination charger.png
30.6871518	-88.0715189	Katorah Photo	coinmap	coinmap.png
30.684476	-88.073928	The Kate Shepard House Bed and Breakfast	destination charger	destination charger.png
25.8931971	-80.1251651	Gray&Sons	coinmap	coinmap.png
25.888532	-80.125577	Bal Harbour Shops - Parking Garage	destination charger	destination charger.png
40.7632804	-73.9626658	The Focused Stock Trader Publishing	coinmap	coinmap.png
40.763488	-73.961323	Parkit 301 E 64th	destination charger	destination charger.png
40.7259692	-74.001121	Bapple Real Estate	coinmap	coinmap.png
40.7340135	-74.0005088	Flat 128	coinmap	coinmap.png
40.7261936543	-74.0007519722	Bathmate Hydromax Review	coinmap	coinmap.png
40.729234	-73.999013	Parkit 221 Thompson Street	destination charger	destination charger.png
40.7752947539	-73.9552919519	The Fitness Office	coinmap	coinmap.png
40.7706922	-73.9485829	World Class Domina	coinmap	coinmap.png
40.773225	-73.952643	iPark NYC 345 East Garage	destination charger	destination charger.png
40.7752947539	-73.9552919519	The Fitness Office	coinmap	coinmap.png
40.771794	-73.955624	Parkright 300 E 77th St	destination charger	destination charger.png
40.7445864	-73.9876442	MaryJane Hemp Foods	coinmap	coinmap.png
40.744570563	-73.9887088537	Edutelly	coinmap	coinmap.png
40.7489801031	-73.9860963821	David Mahat	coinmap	coinmap.png
40.7481626	-73.9844792	Swifto	coinmap	coinmap.png
40.7423048	-73.9819203	Dr. Steven Schram	coinmap	coinmap.png
40.7447614	-73.984989	DG Interactive	coinmap	coinmap.png
40.7446507	-73.9877715	BKLTD.co	coinmap	coinmap.png
40.747406	-73.9850967	Gotham Cookies	coinmap	coinmap.png
40.7406531019	-73.9821283221	The Henley Vaporium	coinmap	coinmap.png
40.744244	-73.984116	Parkright 39 E 29th Street	destination charger	destination charger.png
40.7623410531	-73.9949798584	NocRoom Voice & Data	coinmap	coinmap.png
40.762189	-73.999714	Parkright 670 W 43rd Street	destination charger	destination charger.png
53.5452827	-113.4921427	Wisdom Survival Kits	coinmap	coinmap.png
53.5377697919	-113.494198322	Turdmaster Plumbing	coinmap	coinmap.png
53.540495	-113.489949	Fairmont Hotel MacDonald	destination charger	destination charger.png
43.6566485148	-70.25157094	Maine Bitcoin BTM	coinmap	coinmap.png
43.6579975	-70.2501711	Hilton Garden Inn Portland Downtown Waterfront	destination charger	destination charger.png
38.9059129	-77.0418924	Bitcoin Solutions	coinmap	coinmap.png
38.910623	-77.045745	The Embassy Row Hotel	destination charger	destination charger.png
38.8057488	-77.0457716	Law Office of Stephanie Dourado	coinmap	coinmap.png
38.804411	-77.044697	The Alexandrian, Autograph Collection		destination charger	destination charger.png
38.9098361076	-77.0384502411	Mr. Yogato	coinmap	coinmap.png
38.913322	-77.039525	Kimpton Carlyle Hotel	destination charger	destination charger.png
38.8057488	-77.0457716	Law Office of Stephanie Dourado	coinmap	coinmap.png
38.804636	-77.049262	Kimpton Morrison House	destination charger	destination charger.png
38.9023077	-77.0329583	FutureGen Capital	coinmap	coinmap.png
38.904958	-77.031772	The Donovan, a Kimpton Hotel	destination charger	destination charger.png
35.0957414	-106.658747	New Mexico Tea Company	coinmap	coinmap.png
35.091527	-106.660941	Bella Roma Bed and Breakfast	destination charger	destination charger.png
45.5225398	-122.6763546	Philip Kolba Counseling	coinmap	coinmap.png
45.5228714411	-122.673704624	Dante's	coinmap	coinmap.png
45.522632	-122.6729322	Kit Kat Club	coinmap	coinmap.png
45.5223039134	-122.671108246	Rent Boosted Boards	coinmap	coinmap.png
45.5193834982	-122.676290274	Rialto Poolroom & Bar	coinmap	coinmap.png
45.5176045	-122.6778212	Robocoin ATM	coinmap	coinmap.png
45.521879	-122.674024	Embassy Suites by Hilton Portland Downtown	destination charger	destination charger.png
34.0234270545	-118.460254669	Craniosacral Therapy & Nutrition	coinmap	coinmap.png
34.0257921	-118.4571468	Travelodge Santa Monica	destination charger	destination charger.png
38.8996378	-77.0222541	Greenpeace USA	coinmap	coinmap.png
38.903543	-77.024973	Marriott Marquis Washington D.C.	destination charger	destination charger.png
38.8996378	-77.0222541	Greenpeace USA	coinmap	coinmap.png
38.901964	-77.019837	Hampton Inn Washington-Downtown-Convention Center	destination charger	destination charger.png
38.9045126	-77.0369921	EchoDitto	coinmap	coinmap.png
38.9098361076	-77.0384502411	Mr. Yogato	coinmap	coinmap.png
38.908258	-77.036037	Kimpton Rouge Hotel	destination charger	destination charger.png
35.6720533999	139.739758372	The Pink Cow Akasaka	coinmap	coinmap.png
35.673142863	139.740632772	Tameikesanno Heichinrou ()	coinmap	coinmap.png
35.6717439897	139.735654593		coinmap	coinmap.png
35.66818	139.74044	ANA	destination charger	destination charger.png
40.7752947539	-73.9552919519	The Fitness Office	coinmap	coinmap.png
40.7706922	-73.9485829	World Class Domina	coinmap	coinmap.png
40.774511	-73.952039	Quik Park 82nd Street LLC	destination charger	destination charger.png
40.7929741362	-73.9685064554	Phenomenal You Psychological Services	coinmap	coinmap.png
40.793877	-73.967498	Quik Park 808 Garage LLC	destination charger	destination charger.png
50.4465179	-104.6066932	Trifon's Pizza	coinmap	coinmap.png
50.4508349	-104.610057	Trifons Pizza	coinmap	coinmap.png
50.448075	-104.605546	DoubleTree by Hilton Hotel & Conference Center Regina	destination charger	destination charger.png
37.7895241	-122.4077704	My Doctor Medical Group	coinmap	coinmap.png
37.7921625	-122.4038197	Capitol Hill Consultants LLC	coinmap	coinmap.png
37.7944910874	-122.403890491	RockIT CoLabs	coinmap	coinmap.png
37.7942537009	-122.408638	CAFE	coinmap	coinmap.png
37.7937071	-122.4042094	Pacific Tradewinds Hostel	coinmap	coinmap.png
37.7956032	-122.4037065	Y.E.A.H. Clinic	coinmap	coinmap.png
37.790559	-122.4023821	Bamboo Asia	coinmap	coinmap.png
37.7889716539	-122.409507036	Startup Saturdays	coinmap	coinmap.png
37.7897612	-122.4022864	Bamboo Asia	coinmap	coinmap.png
37.7948677	-122.403366	AcademyX Computer Training	coinmap	coinmap.png
37.7871402301	-122.407967448	Simayof Jewelry	coinmap	coinmap.png
37.793845	-122.4035253	Revestor	coinmap	coinmap.png
37.7918779	-122.4071784	The Ritz-Carlton Hotel San Francisco	destination charger	destination charger.png
38.9023077	-77.0329583	FutureGen Capital	coinmap	coinmap.png
38.9007011	-77.0316487	Hilton Garden Inn Washington DC Downtown	destination charger	destination charger.png
39.4237602	-119.738263	Lamppost Pizza Reno	coinmap	coinmap.png
39.423515	-119.739984	Flex Appeal	destination charger	destination charger.png
40.7733329	-73.9633859	Gallery Rene Mele	coinmap	coinmap.png
40.770292	-73.967735	Chelnik Parking NYC 880 5th	destination charger	destination charger.png
33.8395521276	-84.3798065186	California Collective	coinmap	coinmap.png
33.839773	-84.383023	The St. Regis Atlanta & Atlas Buckhead	destination charger	destination charger.png
35.6287343	-120.6887	Parts Oven	coinmap	coinmap.png
35.627343	-120.685824	Herman Story Winery	destination charger	destination charger.png
40.7706922	-73.9485829	World Class Domina	coinmap	coinmap.png
40.772712	-73.947045	Champion Parking 60 East End Avenue	destination charger	destination charger.png
37.5415927	-77.4455177	Triple Crossing Brewing Company	coinmap	coinmap.png
37.543816	-77.444942	The Jefferson Hotel	destination charger	destination charger.png
49.2827283	-123.1121234	Some Product Apparel	coinmap	coinmap.png
49.2798515017	-123.110325336	Mr. Arancino - Sicilian Risotto Balls Food Cart	coinmap	coinmap.png
49.2808873	-123.1088338	WorkShop Salon	coinmap	coinmap.png
49.2836873	-123.1121284	Rocket Cases	coinmap	coinmap.png
49.2832518	-123.1128763	Decentral.Bangtown	coinmap	coinmap.png
49.2812739	-123.1079885	Key 3D	coinmap	coinmap.png
49.282966	-123.1081397	Floathouse Gastown	coinmap	coinmap.png
49.2788858	-123.1129606	Sandman Hotel Vancouver City Centre	coinmap	coinmap.png
49.2842245	-123.1098478	Quadriga Exchange	coinmap	coinmap.png
49.2838787	-123.1094654	Art of Muse	coinmap	coinmap.png
49.2851281	-123.1158768	Resource World Magazine Inc.	coinmap	coinmap.png
49.2823432	-123.116161	The Fall Tattooing	coinmap	coinmap.png
49.2844392093	-123.112342358	SFU Bookstore Vancouver	coinmap	coinmap.png
49.282416	-123.112165	The Victorian Hotel	destination charger	destination charger.png
40.744570563	-73.9887088537	Edutelly	coinmap	coinmap.png
40.7389191	-73.9907073	Steve Alper DMD	coinmap	coinmap.png
40.7446507	-73.9877715	BKLTD.co	coinmap	coinmap.png
40.742059	-73.992694	Icon Parking 51 W 22nd	destination charger	destination charger.png
40.736811501	-73.9849054813	The Eco Laundry Company	coinmap	coinmap.png
40.735608	-73.983111	Icon Parking 245 E 19th St.	destination charger	destination charger.png
40.7340135	-74.0005088	Flat 128	coinmap	coinmap.png
40.732085	-73.995829	Icon Parking 11 5th Ave	destination charger	destination charger.png
40.7356936987	-73.9893633127	Acupuncture and Massage	coinmap	coinmap.png
40.7389191	-73.9907073	Steve Alper DMD	coinmap	coinmap.png
40.737891	-73.994058	Icon Parking 16 W 16th Street	destination charger	destination charger.png
40.7674279109	-73.9838647842	PinkSundaysStudio	coinmap	coinmap.png
40.767879	-73.983656	Icon Parking 330 W 58th Street	destination charger	destination charger.png
40.7275685	-73.9886638	Glasnost Precious Metals	coinmap	coinmap.png
40.7356936987	-73.9893633127	Acupuncture and Massage	coinmap	coinmap.png
40.731257	-73.992101	GGMC Parking Stewart House Garage (Located at 91 E 9th St)	destination charger	destination charger.png
40.7445864	-73.9876442	MaryJane Hemp Foods	coinmap	coinmap.png
40.7524774	-73.984652	EVR NYC	coinmap	coinmap.png
40.744570563	-73.9887088537	Edutelly	coinmap	coinmap.png
40.7489801031	-73.9860963821	David Mahat	coinmap	coinmap.png
40.7507389	-73.9810226	McLaughlin & Stern LLP - New York, NY	coinmap	coinmap.png
40.7481626	-73.9844792	Swifto	coinmap	coinmap.png
40.7447614	-73.984989	DG Interactive	coinmap	coinmap.png
40.7446507	-73.9877715	BKLTD.co	coinmap	coinmap.png
40.747406	-73.9850967	Gotham Cookies	coinmap	coinmap.png
40.752067	-73.9820787	Lord & Taylor	coinmap	coinmap.png
40.7480372583	-73.9894866943	Escort-Ads.com	coinmap	coinmap.png
40.747478	-73.98504	GGMC Parking 8 E 33rd St Garage (Located at 325 Fifth Ave)	destination charger	destination charger.png
40.7575951351	-73.9907312393	Targets4Free	coinmap	coinmap.png
40.7623410531	-73.9949798584	NocRoom Voice & Data	coinmap	coinmap.png
40.7622069694	-73.9880597591	esalenmassage	coinmap	coinmap.png
40.7544337106	-73.9919114113	Midoma | SALON, GALLERY, BOUTIQUE	coinmap	coinmap.png
40.758586	-73.991341	GGMC Parking 350 W 43rd Street Garage	destination charger	destination charger.png
41.4982402697	-81.6940301657	Crypto Logic Technologies	coinmap	coinmap.png
41.497316	-81.694402	The Ritz-Carlton, Cleveland	destination charger	destination charger.png
38.9045126	-77.0369921	EchoDitto	coinmap	coinmap.png
38.9098361076	-77.0384502411	Mr. Yogato	coinmap	coinmap.png
38.9023077	-77.0329583	FutureGen Capital	coinmap	coinmap.png
38.906641	-77.036861	Courtyard Washington Embassy Row	destination charger	destination charger.png
35.6808434	-105.9385321	Capitol Computer of Santa Fe	coinmap	coinmap.png
35.679719	-105.94094	Don Gaspar Inn, a Select Registry Property	destination charger	destination charger.png
41.8819299	-87.6247089	Bert Green Fine Art	coinmap	coinmap.png
41.881747	-87.620555	Millennium Parking Garage	destination charger	destination charger.png
38.9067220539	-77.0637273788	Fitness Together	coinmap	coinmap.png
38.9036265	-77.0593135	Georgetown Tutoring, LLC.	coinmap	coinmap.png
38.904031	-77.061463	Capella Washington, D.C.	destination charger	destination charger.png
41.8819299	-87.6247089	Bert Green Fine Art	coinmap	coinmap.png
41.882267	-87.624325	Grant Park North	destination charger	destination charger.png
41.8819299	-87.6247089	Bert Green Fine Art	coinmap	coinmap.png
41.877475	-87.624245	Grant Park South	destination charger	destination charger.png
41.8819299	-87.6247089	Bert Green Fine Art	coinmap	coinmap.png
41.882094	-87.620496	Millennium Lakeside Garage	destination charger	destination charger.png
40.7203613	-73.9958453	Marmalade Vintage	coinmap	coinmap.png
40.7217576406	-73.99713099	The Henley Vaporium	coinmap	coinmap.png
40.716966	-73.996707	iPark NYC 44 Elizabeth Street	destination charger	destination charger.png
29.7368098	-95.4576308	Oakshire Manor Garden Apartments	coinmap	coinmap.png
29.741523	-95.456936	Hotel Derek, a Destination Hotel	destination charger	destination charger.png
25.7560681328	-80.2578628063	Dr. Rene Perez	coinmap	coinmap.png
25.752037	-80.255731	Hyatt Regency Coral Gables Miami	destination charger	destination charger.png
40.7763877	-73.9606961	HM Acupuncture in Upper East Side NYC	coinmap	coinmap.png
40.7733329	-73.9633859	Gallery Rene Mele	coinmap	coinmap.png
40.776006	-73.961627	GGMC Parking 50 E 79th St Garage	destination charger	destination charger.png
40.7858462289	-73.951356411	786 Candy Story	coinmap	coinmap.png
40.78567	-73.954593	GGMC Parking Carnegie Garage (Located at 60 E 94th St)	destination charger	destination charger.png
40.7763877	-73.9606961	HM Acupuncture in Upper East Side NYC	coinmap	coinmap.png
40.7733329	-73.9633859	Gallery Rene Mele	coinmap	coinmap.png
40.774207	-73.96282	GGMC Parking 51-53 E 76th St Carlyle Hotel	destination charger	destination charger.png
40.6864593	-73.9750653	Mirai Wellness Spa	coinmap	coinmap.png
40.6866565	-73.9750172	Lean Crust	coinmap	coinmap.png
40.688086	-73.979234	GGMC Parking 66 Rockwell Pl Garage	destination charger	destination charger.png
40.6929307846	-73.9910852909	AiryTea Inc.	coinmap	coinmap.png
40.689016	-73.988672	GGMC Parking 75 Smith St Garage	destination charger	destination charger.png
40.7356936987	-73.9893633127	Acupuncture and Massage	coinmap	coinmap.png
40.7389191	-73.9907073	Steve Alper DMD	coinmap	coinmap.png
40.736811501	-73.9849054813	The Eco Laundry Company	coinmap	coinmap.png
40.734939	-73.989409	GGMC Parking Union Square Parking Garage (Located at 100 E 15th St)	destination charger	destination charger.png
34.0729241247	-117.551715374	Coinme Bitcoin ATM	coinmap	coinmap.png
34.070169	-117.555636	Ayres Inn & Suites - Ontario	destination charger	destination charger.png
42.355516	-71.0587849	Free Software Foundation	coinmap	coinmap.png
42.357382	-71.060875	Kimpton Nine Zero Hotel	destination charger	destination charger.png
40.7752947539	-73.9552919519	The Fitness Office	coinmap	coinmap.png
40.7706922	-73.9485829	World Class Domina	coinmap	coinmap.png
40.77331	-73.952621	iPark NYC E 80th Street	destination charger	destination charger.png
26.7089987	-80.0533868	Christopher Hopkins, Esq.	coinmap	coinmap.png
26.7054024	-80.0563548	McLaughlin & Stern LLP	coinmap	coinmap.png
26.704929	-80.057026	Hilton West Palm Beach	destination charger	destination charger.png
34.0451745	-118.2566432	Ham & Eggs Tavern	coinmap	coinmap.png
34.0474283	-118.2564091	HostWanted.com	coinmap	coinmap.png
34.0478413975	-118.256320953	NocRoom Networks	coinmap	coinmap.png
34.0432155	-118.2549866	Niche.LA Video Art	coinmap	coinmap.png
34.0479480725	-118.258643746	Coinme Bitcoin ATM	coinmap	coinmap.png
34.0456545287	-118.256964684	Escort-Ads.com	coinmap	coinmap.png
34.04385	-118.257712	LEVEL Furnished Living	destination charger	destination charger.png
40.7259692	-74.001121	Bapple Real Estate	coinmap	coinmap.png
40.7251122625	-74.0042388439	Mega Food Truck	coinmap	coinmap.png
40.7261936543	-74.0007519722	Bathmate Hydromax Review	coinmap	coinmap.png
40.7252626	-74.0042317	Desi Food Truck	coinmap	coinmap.png
40.721801	-74.004237	Quik Park 311 West Broadway LLC	destination charger	destination charger.png
40.7623410531	-73.9949798584	NocRoom Voice & Data	coinmap	coinmap.png
40.761018	-73.99878	Quik Park 600 West 42nd Street (Silver Towers) LLC	destination charger	destination charger.png
40.7622069694	-73.9880597591	esalenmassage	coinmap	coinmap.png
40.762411	-73.984495	Quik Park 285 W 50th Street LLC	destination charger	destination charger.png
40.7445864	-73.9876442	MaryJane Hemp Foods	coinmap	coinmap.png
40.744570563	-73.9887088537	Edutelly	coinmap	coinmap.png
40.7489801031	-73.9860963821	David Mahat	coinmap	coinmap.png
40.7520287	-73.9901051	Lee Jean Corp	coinmap	coinmap.png
40.7531169	-73.9931178	Morse & Company - Tax and Accounting Firm	coinmap	coinmap.png
40.7446507	-73.9877715	BKLTD.co	coinmap	coinmap.png
40.747406	-73.9850967	Gotham Cookies	coinmap	coinmap.png
40.7485331	-73.9922549	Nesenoff & Miltenberg LLP	coinmap	coinmap.png
40.7480372583	-73.9894866943	Escort-Ads.com	coinmap	coinmap.png
40.749073	-73.990032	Quik Park Garden Lots LLC	destination charger	destination charger.png
40.7929741362	-73.9685064554	Phenomenal You Psychological Services	coinmap	coinmap.png
40.795624	-73.971961	Quik Park Columbia Garage LLC	destination charger	destination charger.png
48.7859260545	-122.489651442	Coinme Bitcoin ATM	coinmap	coinmap.png
48.788325	-122.48746	Oxford Suites Bellingham	destination charger	destination charger.png
40.756669	-73.9768961	Cosmetic & Implant Dental Associates	coinmap	coinmap.png
40.752392	-73.9734902	Awesomeness Reminders, LLC	coinmap	coinmap.png
40.7566666	-73.9769715	Pradeep Atluri, MD, PhD (Psychiatrist)	coinmap	coinmap.png
40.751867	-73.972873	GGMC Parking Seven Eleven (Located at 217 E 44th St)	destination charger	destination charger.png
24.5502460729	-81.7980194092	NocRoom PBX VOIP Systems	coinmap	coinmap.png
24.552644	-81.797189	The Conch House Heritage Inn, a Select Registry Property	destination charger	destination charger.png
45.489505	10.8999043	Paolo Cottini Vini - Creare Ricchezza	coinmap	coinmap.png
45.489717	10.899366	Byblos Art Hotel Villa Amista`	destination charger	destination charger.png
48.1401031034	11.5614581108	Hanf im Glck CBD Shop	coinmap	coinmap.png
48.1389360957	11.5535241365	a&o Hostel Mnchen Hauptbahnhof	coinmap	coinmap.png
48.1362846	11.5611565	Hibbelig, poets society	coinmap	coinmap.png
48.139487	11.557592	Hotel Sofitel Munich Bayerpost	destination charger	destination charger.png
48.8622797447	2.40295886993	QI GONG - Dojo les sens du Monde	coinmap	coinmap.png
48.859894	2.403268	Mama Shelter	destination charger	destination charger.png
50.8470648984	4.35337007046	Family brews.	coinmap	coinmap.png
50.846187	4.35123	Hotel Amigo, a Rocco Forte Hotel	destination charger	destination charger.png
51.0562377	3.7172899	FANN	coinmap	coinmap.png
51.0517482	3.7146097	OSSByte	coinmap	coinmap.png
51.0541044	3.717529	Arpeggio Music	coinmap	coinmap.png
51.0539582	3.7199527	JinJiang	coinmap	coinmap.png
51.054624	3.715143	Pillows Grand Hotel Reylof	destination charger	destination charger.png
51.2068262602	3.22733581066	Dijver	coinmap	coinmap.png
51.2107751092	3.22366654873	Coffeebar Adriaan	coinmap	coinmap.png
51.2083793	3.2287439	Die Swaene	coinmap	coinmap.png
51.2107146187	3.22376310825	Coffeeshop Adriaan	coinmap	coinmap.png
51.209999	3.223905	Hotel Heritage	destination charger	destination charger.png
52.3640835	4.8877358	Azarius Smart Shop	coinmap	coinmap.png
52.361587	4.883425	Park Hotel Amsterdam	destination charger	destination charger.png
40.4257361	-3.6890505	Tommy Mel's	coinmap	coinmap.png
40.4257079	-3.6887819	Dr Emilio Santos - Ginecologa	coinmap	coinmap.png
40.4238877	-3.6851212	Hotel Petit Palace Art Gallery	coinmap	coinmap.png
40.4261357	-3.6889564	NH Sanvy	coinmap	coinmap.png
40.4226354	-3.6881045	Carolina Herrera	coinmap	coinmap.png
40.4226012	-3.6879966	F&J Martn Abogados	coinmap	coinmap.png
40.4264897	-3.6854696	Hespera Hermosilla	coinmap	coinmap.png
40.42214	-3.6813089	Hotel NH Alcal	coinmap	coinmap.png
40.4251887	-3.6872808	Jardn de Serrano	coinmap	coinmap.png
40.4217627	-3.6842333	Hotel Wellington	coinmap	coinmap.png
40.4240656	-3.6878536	Loewe	coinmap	coinmap.png
40.4269707	-3.6873476	Petit Palace Embassy Serrano	coinmap	coinmap.png
40.4237773	-3.6835853	Scotta1985	coinmap	coinmap.png
40.4243699	-3.6877992	Prada	coinmap	coinmap.png
40.4250908	-3.6850351	Farmacia - Calle Goya 12	coinmap	coinmap.png
40.422137	-3.684316	Hotel Wellington Madrid	destination charger	destination charger.png
45.4395114092	10.992937088	Studio Rubini e Partners	coinmap	coinmap.png
45.4387248	10.9899757	Confetteria Filarmonica	coinmap	coinmap.png
45.4386505	10.9902652	Confetteria Filarmonica	coinmap	coinmap.png
45.43906	10.989969	The Gentleman of Verona Grand Relais	destination charger	destination charger.png
45.4656313	9.184378	X-Laboratories	coinmap	coinmap.png
45.4670835528	9.19139385223	TopLife Concierge	coinmap	coinmap.png
45.466872871	9.18937683105	Dott. Casani - Home Visiting Doctor	coinmap	coinmap.png
45.4653323	9.1844258	Il Giornale	coinmap	coinmap.png
45.470092	9.189372	Bulgari Hotel Milano	destination charger	destination charger.png
47.3727505732	8.57316613197	The Dolder Grand	coinmap	coinmap.png
47.372536	8.574303	The Dolder Grand (Parking P1)	destination charger	destination charger.png
45.9191199	6.867778	Monkey Bar	coinmap	coinmap.png
45.923083	6.867542	Htel Mont-Blanc	destination charger	destination charger.png
41.3723000231	2.16726243496	La Timpa, Refugio gastronmico	coinmap	coinmap.png
41.375486	2.1679901	Ultramarinos	coinmap	coinmap.png
41.370589	2.170855	Hotel Miramar Barcelona 	destination charger	destination charger.png
40.4108887	-3.6672641	Clnica Dental Astros	coinmap	coinmap.png
40.406371	-3.669528	Hotel Claridge	destination charger	destination charger.png
51.2163197299	6.78221225739	a&o Hostel Dsseldorf Hauptbahnhof	coinmap	coinmap.png
51.218326	6.785837	Hotel Stadt Muenchen	destination charger	destination charger.png
37.9924720315	-1.11439883709	INGITEC PROYECTOS	coinmap	coinmap.png
37.98975	-1.116793	Hotel Santos Nelva	destination charger	destination charger.png
51.3416445204	12.3784697056	Trafford Sky Homes	coinmap	coinmap.png
51.343386	12.376884	Leipzig Marriott Hotel	destination charger	destination charger.png
48.8754729	2.2958503	Apartment Etoile Arc De Triomphe with 1 bedroom for 4 people	coinmap	coinmap.png
48.879773945	2.29591727257	Cabinet BNZ AVOCATS / VINOJURIS	coinmap	coinmap.png
48.8727318359	2.29682922363	Bitcoinscorner.com	coinmap	coinmap.png
48.877146	2.297083	Renaissance Arc de Triomphe	destination charger	destination charger.png
51.5135613	-0.1430794	LARMOIRE CHIC Ltd.	coinmap	coinmap.png
51.5172504	-0.1425829	London Theatre Direct Ltd	coinmap	coinmap.png
51.516593	-0.144297	Q-Park Oxford Street	destination charger	destination charger.png
51.5181902494	-0.149769186974	bitcoininvest.eu	coinmap	coinmap.png
51.5135613	-0.1430794	LARMOIRE CHIC Ltd.	coinmap	coinmap.png
51.5172504	-0.1425829	London Theatre Direct Ltd	coinmap	coinmap.png
51.517933	-0.145537	Q-Park Harley Street	destination charger	destination charger.png
43.3183211	-1.9812628	BurbujabeTech  Diseo y desarrollo web	coinmap	coinmap.png
43.32158	-1.980658	Hotel Maria Cristina a Luxury Collection	destination charger	destination charger.png
57.7043817	11.9718284	Studiohanna	coinmap	coinmap.png
57.7054775	11.9713502	Christers Hrvrd	coinmap	coinmap.png
57.704344	11.968883	Avalon Hotel	destination charger	destination charger.png
34.25638732	-85.1643687487	EasyBit Bitcoin ATM	coinmap	coinmap.png
34.258126	-85.165391	Hampton Inn & Suites Rome	destination charger	destination charger.png
-31.9564121	115.8637239	Visible Online Marketing	coinmap	coinmap.png
-31.9533866254	115.858721137	Ella Bache Perth City (Beauty Salon, Skincare, Therapy, Massage, Gifts)	coinmap	coinmap.png
-31.9529292	115.8571349	Northern Sun Solar Power	coinmap	coinmap.png
-31.955555	115.860357	COMO The Treasury	destination charger	destination charger.png
-33.9340672812	151.178655624	BitAssistant	coinmap	coinmap.png
-33.932785	151.180293	Sydney Airport Qantas Valet	destination charger	destination charger.png
51.2159601899	4.41917002201	Timepiece Bank	coinmap	coinmap.png
51.2218536036	4.41706717014	Virtual Reality Belgium	coinmap	coinmap.png
51.2155099209	4.42028045654	Antwerp Or	coinmap	coinmap.png
51.21934	4.421742	Radisson Blu Astrid Hotel, Antwerp	destination charger	destination charger.png
47.6097909	-122.3366622	Nesbit's Fine Watch Service	coinmap	coinmap.png
47.6069606	-122.3332006	Phillip Morgan Photography	coinmap	coinmap.png
47.6049041	-122.3361893	Hotel 1000	destination charger	destination charger.png
39.5248198995	-119.811626673	Beautiful Bearded Man	coinmap	coinmap.png
39.529751	-119.814875	Silver Legacy Resort Casino	destination charger	destination charger.png
40.7445864	-73.9876442	MaryJane Hemp Foods	coinmap	coinmap.png
40.7356936987	-73.9893633127	Acupuncture and Massage	coinmap	coinmap.png
40.744570563	-73.9887088537	Edutelly	coinmap	coinmap.png
40.7389191	-73.9907073	Steve Alper DMD	coinmap	coinmap.png
40.7447614	-73.984989	DG Interactive	coinmap	coinmap.png
40.7446507	-73.9877715	BKLTD.co	coinmap	coinmap.png
40.736811501	-73.9849054813	The Eco Laundry Company	coinmap	coinmap.png
40.740458	-73.989037	Icon Parking 5 E 22nd Street	destination charger	destination charger.png
40.7607161	-73.9669623	Leeds United Construction	coinmap	coinmap.png
40.7632804	-73.9626658	The Focused Stock Trader Publishing	coinmap	coinmap.png
40.762678	-73.965447	Icon Parking 203 E 61 Street	destination charger	destination charger.png
40.7818900115	-73.9758825302	Astro West Fine Minerals, Fossils, and Meteorites	coinmap	coinmap.png
40.786099	-73.977303	Icon Parking 225 W 83 Street	destination charger	destination charger.png
40.7607161	-73.9669623	Leeds United Construction	coinmap	coinmap.png
40.7632804	-73.9626658	The Focused Stock Trader Publishing	coinmap	coinmap.png
40.759127	-73.964684	Icon Parking 301 E 57 Street	destination charger	destination charger.png
40.7445864	-73.9876442	MaryJane Hemp Foods	coinmap	coinmap.png
40.744570563	-73.9887088537	Edutelly	coinmap	coinmap.png
40.7489801031	-73.9860963821	David Mahat	coinmap	coinmap.png
40.7446507	-73.9877715	BKLTD.co	coinmap	coinmap.png
40.7485331	-73.9922549	Nesenoff & Miltenberg LLP	coinmap	coinmap.png
40.7480372583	-73.9894866943	Escort-Ads.com	coinmap	coinmap.png
40.744467	-73.990662	Icon Parking 40 W 26th Street	destination charger	destination charger.png
40.7142201221	-74.0077739954	LAMBERT + Co. DENTISTRY	coinmap	coinmap.png
40.7144038	-74.005943	Techno Tourist	coinmap	coinmap.png
40.717686	-74.010613	Icon Parking 308 Greenwich	destination charger	destination charger.png
40.7525424	-73.981445	The Forefront Law Group	coinmap	coinmap.png
40.7507389	-73.9810226	McLaughlin & Stern LLP - New York, NY	coinmap	coinmap.png
40.752392	-73.9734902	Awesomeness Reminders, LLC	coinmap	coinmap.png
40.747962	-73.976569	Icon Parking 560 Third Ave	destination charger	destination charger.png
40.7423048	-73.9819203	Dr. Steven Schram	coinmap	coinmap.png
40.7447614	-73.984989	DG Interactive	coinmap	coinmap.png
40.747406	-73.9850967	Gotham Cookies	coinmap	coinmap.png
40.7406531019	-73.9821283221	The Henley Vaporium	coinmap	coinmap.png
40.742821	-73.980913	Icon Parking 155 E 29th Street	destination charger	destination charger.png
40.7340135	-74.0005088	Flat 128	coinmap	coinmap.png
40.7420588232	-73.9998346567	The Eco Laundry Company	coinmap	coinmap.png
40.737122	-73.996119	Icon Parking 55 W 14th Street	destination charger	destination charger.png
40.7059776	-74.0115846	Bitcoin Center NYC	coinmap	coinmap.png
40.7058760007	-74.0103167295	The Bitcoin Store -	coinmap	coinmap.png
40.7055845	-74.0105097	MyUSACorporation.com	coinmap	coinmap.png
40.7061484617	-74.0112662315	Bitcoin Seattle	coinmap	coinmap.png
40.7046194123	-74.0113627911	YOKU Cloud Services	coinmap	coinmap.png
40.705782469	-74.0114808083	Bitcoin Rehab	coinmap	coinmap.png
40.7074069	-74.0108841	Robert J. Feldman attorney-at-law	coinmap	coinmap.png
40.7066535	-74.0123807	The King's College	coinmap	coinmap.png
40.704514	-74.01074	Icon Parking 14-26 William Street	destination charger	destination charger.png
40.7607161	-73.9669623	Leeds United Construction	coinmap	coinmap.png
40.76139	-73.968269	Icon Parking 150 E 58th Street	destination charger	destination charger.png
40.7607161	-73.9669623	Leeds United Construction	coinmap	coinmap.png
40.7632804	-73.9626658	The Focused Stock Trader Publishing	coinmap	coinmap.png
40.760462	-73.964086	Icon Parking 300 E 59th Street	destination charger	destination charger.png
40.7929741362	-73.9685064554	Phenomenal You Psychological Services	coinmap	coinmap.png
40.793158	-73.970319	Icon Parking 169 W 95th Street	destination charger	destination charger.png
40.7706922	-73.9485829	World Class Domina	coinmap	coinmap.png
40.766554	-73.952905	Icon Parking E 72nd Street	destination charger	destination charger.png
40.7733329	-73.9633859	Gallery Rene Mele	coinmap	coinmap.png
40.770601	-73.960531	iPark NYC 183 E 73rd Street	destination charger	destination charger.png
38.6503897716	-90.3356730938	Love Lawn Service	coinmap	coinmap.png
38.6519153	-90.3268896	Comfort Architecture	coinmap	coinmap.png
38.648323	-90.331685	The Ritz-Carlton, St. Louis	destination charger	destination charger.png
40.7525424	-73.981445	The Forefront Law Group	coinmap	coinmap.png
40.7524774	-73.984652	EVR NYC	coinmap	coinmap.png
40.7489801031	-73.9860963821	David Mahat	coinmap	coinmap.png
40.7481626	-73.9844792	Swifto	coinmap	coinmap.png
40.7520287	-73.9901051	Lee Jean Corp	coinmap	coinmap.png
40.747406	-73.9850967	Gotham Cookies	coinmap	coinmap.png
40.752067	-73.9820787	Lord & Taylor	coinmap	coinmap.png
40.7480372583	-73.9894866943	Escort-Ads.com	coinmap	coinmap.png
40.750844	-73.986188	Icon Parking 990 Ave of the Americas	destination charger	destination charger.png
40.6864593	-73.9750653	Mirai Wellness Spa	coinmap	coinmap.png
40.6866565	-73.9750172	Lean Crust	coinmap	coinmap.png
40.689457	-73.978606	Discount Parking 180 Ashland Place	destination charger	destination charger.png
53.5223557	-113.6237691	BitNational Robocoin Kiosk	coinmap	coinmap.png
53.521436	-113.627757	Fantasyland Hotel	destination charger	destination charger.png
-34.9234093201	138.601697087	Bitcoin Dealers	coinmap	coinmap.png
-34.921677	138.598457	Stamford Plaza Adelaide	destination charger	destination charger.png
-27.3855243827	153.11975956	Various Shops	coinmap	coinmap.png
-27.382563	153.120354	Brisbane Airport - Qantas Valet Parking	destination charger	destination charger.png
19.4147165474	-99.1612833738	Endocrinologa y Metabolismo	coinmap	coinmap.png
19.41863	-99.156484	Sheraton Four Points Roma CDMX	destination charger	destination charger.png
19.4218248248	-99.1732084751	Casi esquina	coinmap	coinmap.png
19.425392	-99.172428	St. Regis Mexico City	destination charger	destination charger.png
40.752392	-73.9734902	Awesomeness Reminders, LLC	coinmap	coinmap.png
40.751847	-73.971348	iPark NYC 246 E 45 Street	destination charger	destination charger.png
52.2433879575	4.43042993546	Repair Clinic	coinmap	coinmap.png
52.241193	4.429914	Grand Hotel Huis ter Duin	destination charger	destination charger.png
45.4670835528	9.19139385223	TopLife Concierge	coinmap	coinmap.png
45.466872871	9.18937683105	Dott. Casani - Home Visiting Doctor	coinmap	coinmap.png
45.4639834413	9.1898059845	Hemeras Boutique House	coinmap	coinmap.png
45.463815	9.193981	Starhotels Rosa Grand	destination charger	destination charger.png
19.4241317861	-99.1641533375	Pixza	coinmap	coinmap.png
19.4313661233	-99.1692066193	Collective Mx	coinmap	coinmap.png
19.4243240313	-99.1667068005	Tumbiko	coinmap	coinmap.png
19.427908	-99.167197	Sheraton Mexico City Maria Isabel	destination charger	destination charger.png
27.9581894	-82.4401794	Supreme Writing Service	coinmap	coinmap.png
27.960431	-82.43529	Columbia Restaurant	destination charger	destination charger.png
38.3487243642	-0.486563444138	Floristera Buccaro	coinmap	coinmap.png
38.344504	-0.482544	Hotel Hospes Amerigo	destination charger	destination charger.png
19.4319521	-99.1981586	BULLET Hairdressing Club	coinmap	coinmap.png
19.427433	-99.195326	Hotel W	destination charger	destination charger.png
-36.7596750049	144.278206229	CMather Web Development	coinmap	coinmap.png
-36.759099	144.27639	City Centre Motel Bendigo	destination charger	destination charger.png
41.3859291	2.2009081	Barcelona Charter  Alquiler de Veleros	coinmap	coinmap.png
41.387161	2.196535	Hotel Arts Barcelona 	destination charger	destination charger.png
43.706942029	7.33026266098	Poivron Rouge	coinmap	coinmap.png
43.701976	7.328267	Hotel Royal Riviera	destination charger	destination charger.png
45.6609183915	13.100477457	Hotel President Lignano	coinmap	coinmap.png
45.661121	13.099916	Hotel President Lignano	destination charger	destination charger.png
59.4445706	8.0075507	Camping Dalen	coinmap	coinmap.png
59.443892	8.011441	Dalen Hotel	destination charger	destination charger.png
45.9948970197	8.94276380539	Ok Bar Gestioni SA	coinmap	coinmap.png
45.99256	8.944115	Hotel de La Paix	destination charger	destination charger.png
40.7087591511	-74.0052741766	Dr Andrew Black Chiropractor	coinmap	coinmap.png
40.707679	-74.004687	Icon 299 Peal Street Seaport Parking	destination charger	destination charger.png
40.7929741362	-73.9685064554	Phenomenal You Psychological Services	coinmap	coinmap.png
40.78859	-73.97118	RapidPark 600 Columbus Ave	destination charger	destination charger.png
46.2040015237	6.14631414413	ibani.com	coinmap	coinmap.png
46.2109920457	6.14720463753	City Babylone	coinmap	coinmap.png
46.2112184896	6.14862620831	Entre homard & cte	coinmap	coinmap.png
46.2105725652	6.15151226521	FRANC VILA	coinmap	coinmap.png
46.2044876	6.1456132	Ethosworld	coinmap	coinmap.png
46.20897	6.14983	Hotel Beau-Rivage Genve	destination charger	destination charger.png
-37.8171749346	144.953548908	David Mahat	coinmap	coinmap.png
-37.816421	144.956539	Miller Gold Tech /  Miller Gold Search	coinmap	coinmap.png
-37.8171791723	144.955716133	Vera Chan	coinmap	coinmap.png
-37.813111	144.955756	535 Little Lonsdale Street Flagstaff Car Park	destination charger	destination charger.png
37.7937533	-122.401105	Diana Graue, Licensed Acupuncturist	coinmap	coinmap.png
37.7909602	-122.3933693	Zip Zap Inc	coinmap	coinmap.png
37.795631	-122.3931771	Three Babes Bakeshop	coinmap	coinmap.png
37.790559	-122.4023821	Bamboo Asia	coinmap	coinmap.png
37.79696	-122.4021345	Humble Bundle	coinmap	coinmap.png
37.7880606	-122.4010128	SC Sports Therapy	coinmap	coinmap.png
37.7897612	-122.4022864	Bamboo Asia	coinmap	coinmap.png
37.7949012	-122.3928736	Buyer's Best Friend Wholesale & Market	coinmap	coinmap.png
37.7946398	-122.3952157	Over The Moon Ice Cream & Frozen Yogurt	coinmap	coinmap.png
37.7922062	-122.3981904	Raven Office Centers	coinmap	coinmap.png
37.792826	-122.397675	101 California Street Garage	destination charger	destination charger.png
19.4319521	-99.1981586	BULLET Hairdressing Club	coinmap	coinmap.png
19.435233	-99.202104	Palacio de Hierro Polanco	destination charger	destination charger.png
36.7212841	-4.4212649	Telepienso	coinmap	coinmap.png
36.720424	-4.4287168	Apartment with circular bedroom	coinmap	coinmap.png
36.7199588	-4.4203115	Fj Martn Abogados	coinmap	coinmap.png
36.7168577876	-4.4245827198	Abogados IN DIEM | Mlaga	coinmap	coinmap.png
36.720374	-4.424965	Hotel Vincci Seleccin Posada del Patio	destination charger	destination charger.png
-33.8732304813	151.207237244	David Mahat	coinmap	coinmap.png
-33.8761967473	151.205649376	BitRocket Bitcoin ATM	coinmap	coinmap.png
-33.8669506	151.2086247	Discreet Bullion	coinmap	coinmap.png
-33.8694218	151.2051817	Spawn Point Small Bar	coinmap	coinmap.png
-33.8694276	151.2048541	Since I Left You	coinmap	coinmap.png
-33.8669902969	151.208546162	Bitcoin Dealers	coinmap	coinmap.png
-33.8676317073	151.208572984	VINNER PTY LTD	coinmap	coinmap.png
-33.8708965899	151.206121445	Independent Reserve	coinmap	coinmap.png
-33.8690049	151.2061917	The SG	coinmap	coinmap.png
-33.871257	151.206304	Queen Victoria Building - Valet Parking	destination charger	destination charger.png
32.7959837	-117.2529544	Villalobos SD	coinmap	coinmap.png
32.7959815	-117.252969	Datagonia Web Solutions	coinmap	coinmap.png
32.797021	-117.256456	Tower23 Hotel	destination charger	destination charger.png
36.0249922	-115.0885098	CoinBus.com	coinmap	coinmap.png
36.020739	-115.090273	Green Valley Ranch Resort and Spa	destination charger	destination charger.png
39.7548245	-104.9871359	Unleaded Group	coinmap	coinmap.png
39.746352679	-104.996455908	Incredible Art Gallery	coinmap	coinmap.png
39.749998	-104.991988	The Ritz-Carlton, Denver	destination charger	destination charger.png
32.7141993	-117.1599549	Logan Fairfax Law	coinmap	coinmap.png
32.7154106	-117.1590474	Algomatik - Mobile app development	coinmap	coinmap.png
32.7190764	-117.1613399	ZENTHREE - Web Design	coinmap	coinmap.png
32.716655	-117.163677	The Bristol Hotel	destination charger	destination charger.png
36.8595124	-76.2963447	miki ross photographic arts + trade	coinmap	coinmap.png
36.860532	-76.299693	Press 626	destination charger	destination charger.png
40.7275685	-73.9886638	Glasnost Precious Metals	coinmap	coinmap.png
40.7356936987	-73.9893633127	Acupuncture and Massage	coinmap	coinmap.png
40.731887	-73.991906	Icon Parking University 10 Parking (Entrance on 50 E 10th Street)	destination charger	destination charger.png
30.3958149	-97.7196383	Bamboo Bistro North	coinmap	coinmap.png
30.398309	-97.719381	Home2 Suites by Hilton Austin North	destination charger	destination charger.png
40.7674279109	-73.9838647842	PinkSundaysStudio	coinmap	coinmap.png
40.7615609255	-73.978843689	47 Venues	coinmap	coinmap.png
40.762568	-73.982718	Icon Parking 810 Seventh Ave (Entrance on 207 W 52nd St)	destination charger	destination charger.png
40.8038243	-73.9495698	Freddie Rankin Studios	coinmap	coinmap.png
40.80155	-73.948499	iPark NYC Central Harlem Garage Corp.	destination charger	destination charger.png
37.7921625	-122.4038197	Capitol Hill Consultants LLC	coinmap	coinmap.png
37.790559	-122.4023821	Bamboo Asia	coinmap	coinmap.png
37.7880606	-122.4010128	SC Sports Therapy	coinmap	coinmap.png
37.7842531017	-122.403273582	Coinme Bitcoin ATM	coinmap	coinmap.png
37.7897612	-122.4022864	Bamboo Asia	coinmap	coinmap.png
37.7877738	-122.3998375	imPrint CP	coinmap	coinmap.png
37.7922062	-122.3981904	Raven Office Centers	coinmap	coinmap.png
37.7868721	-122.3995645	Wikimedia Foundation	coinmap	coinmap.png
37.788097	-122.39918	101 Second Street Garage	destination charger	destination charger.png
40.738673108	-74.0032196045	NocRoom Voice & Data	coinmap	coinmap.png
40.734412	-74.007184	Parkright 738 Greenwich Street	destination charger	destination charger.png
40.7632804	-73.9626658	The Focused Stock Trader Publishing	coinmap	coinmap.png
40.758519	-73.961272	iPark NYC 425 E 58th Street	destination charger	destination charger.png
38.9045126	-77.0369921	EchoDitto	coinmap	coinmap.png
38.908429	-77.033132	Mason & Rook, A Kimpton Hotel	destination charger	destination charger.png
38.923227	-77.072747	Roam Fitness	coinmap	coinmap.png
38.92336	-77.072855	Glover Park Hotel, A Kimpton Hotel	destination charger	destination charger.png
52.3591725821	4.861536026	Alchemistgarden	coinmap	coinmap.png
52.357784	4.856549	Conscious Hotel Vondelpark	destination charger	destination charger.png
46.6706842	11.1632332	Consulenza Finanziaria indipendente	coinmap	coinmap.png
46.669114	11.161786	Hotel Terme Merano	destination charger	destination charger.png
45.4621248	9.1734123	BLB Studio Legale	coinmap	coinmap.png
45.46055205	9.18042898	Coin Store	coinmap	coinmap.png
45.463992	9.1757	S. Ambrogio Parking	destination charger	destination charger.png
45.9848588	9.2620268	Holiday Apartment Bellagio	coinmap	coinmap.png
45.9878015	9.2607695	Hotel Centrale Bellagio	coinmap	coinmap.png
45.9854676	9.2608205	Touristic Apartments Bellagio	coinmap	coinmap.png
45.988756	9.260919	Grand Hotel Villa Serbelloni	destination charger	destination charger.png
44.9731202	-93.2737845	Slam Academy	coinmap	coinmap.png
44.970602	-93.278264	Hyatt Regency Minneapolis	destination charger	destination charger.png
41.9214996	12.4803374	Ninkasi Beershop	coinmap	coinmap.png
41.918669	12.484861	Aldrovandi Villa Borghese	destination charger	destination charger.png
45.0686301	7.6874732	Lanieri Turin Atelier	coinmap	coinmap.png
45.065868	7.689454	NH Collection Torino Piazza Carlina	destination charger	destination charger.png
41.9050718389	12.4991637468	Flatinrome Termini 2 Apartment	coinmap	coinmap.png
41.903114	12.5016	Best Western Premier Royal Santina	destination charger	destination charger.png
51.4409608	5.4807852	CleverCoin	coinmap	coinmap.png
51.438898	5.482512	Hotel Pullman Eindhoven Cocagne	destination charger	destination charger.png
41.3917806	2.1772646	Cajero Bitcoin MOB	coinmap	coinmap.png
41.3903202449	2.17650532722	Freelance Web Developer	coinmap	coinmap.png
41.3877565824	2.16992855072	Internet English Classes	coinmap	coinmap.png
41.391752	2.17727	BTC Point	coinmap	coinmap.png
41.3855188289	2.17010557652	BTC recarga	coinmap	coinmap.png
41.388003	2.173182	Hotel H10 Cubik	destination charger	destination charger.png
48.191736304	16.3886082172	Streetview Wien > Premium Apt.	coinmap	coinmap.png
48.1898981374	16.3859474659	Leo Plaw Artwork	coinmap	coinmap.png
48.1930387	16.3925918	LEBINGER Klaviertransporte e.U.	coinmap	coinmap.png
48.194043	16.389112	Hotel Enziana	destination charger	destination charger.png
35.1467137699	-90.0490629673	Osborn Psychiatry	coinmap	coinmap.png
35.142409	-90.051998	The Peabody Hotel	destination charger	destination charger.png
38.577935	-121.4932717	SacTrips Travel Tours	coinmap	coinmap.png
38.5776272	-121.4907685	Hyatt Regency Sacramento	destination charger	destination charger.png
-37.8176231	144.9678882	Saang Accessories	coinmap	coinmap.png
-37.8135981987	144.973021746	Hempme	coinmap	coinmap.png
-37.8129455529	144.967979193	Hub Express	coinmap	coinmap.png
-37.8156578095	144.966310859	Bitcoin Dealers	coinmap	coinmap.png
-37.8175628	144.9673906	Helveticade Design Studio	coinmap	coinmap.png
-37.8121699987	144.965318441	Mind Games	coinmap	coinmap.png
-37.8141745565	144.965880428	Mind Games	coinmap	coinmap.png
-37.814844	144.969685	Grand Hyatt Melbourne	destination charger	destination charger.png
35.6743456129	139.768747687	Sushi-Bar Numazuko Ginza 1st, 8F	coinmap	coinmap.png
35.6710772284	139.764128923	LittleGarden	coinmap	coinmap.png
35.6697088	139.7678508	GINZA KABUKIZA	destination charger	destination charger.png
25.6464076	-100.3238134	El Cowork	coinmap	coinmap.png
25.646082	-100.323325	Fiesta Inn Monterrey Valle	destination charger	destination charger.png
45.3540791363	11.7723548412	Bitcoin Veneto Center	coinmap	coinmap.png
45.354344	11.773738	Hotel Abano Ritz	destination charger	destination charger.png
46.9474205101	7.44081795216	EnergyKitchen	coinmap	coinmap.png
46.948782	7.440818	Hotel Schweizerhof Bern	destination charger	destination charger.png
47.3805898388	8.67259562016	PERRON18	coinmap	coinmap.png
47.383399	8.669285	Kindercity Sciencity	destination charger	destination charger.png
50.1127353371	8.68379116058	Coinpages.io	coinmap	coinmap.png
50.1146204688	8.67504179478	Focacceria	coinmap	coinmap.png
50.117217	8.680027	Fleming's Selection Hotel Frankfurt-City	destination charger	destination charger.png
43.8127796206	7.76723742485	iLove Burger Tacos  & Kebab	coinmap	coinmap.png
43.812623	7.76452	Grand Hotel & Des Anglais	destination charger	destination charger.png
36.4860529	-4.9623858	Villa Marina 2 bedrooms	coinmap	coinmap.png
36.489508	-4.961662	Hotel H10 Andalucia Plaza	destination charger	destination charger.png
51.3416445204	12.3784697056	Trafford Sky Homes	coinmap	coinmap.png
51.343657	12.376787	Hfe am Brhl	destination charger	destination charger.png
45.3553118156	14.3265151978	Design Hotel Navis	coinmap	coinmap.png
45.355518	14.326323	Design Hotel Navis	destination charger	destination charger.png
51.2107751092	3.22366654873	Coffeebar Adriaan	coinmap	coinmap.png
51.2107146187	3.22376310825	Coffeeshop Adriaan	coinmap	coinmap.png
51.213402	3.225611	Hotel Ter Brughe	destination charger	destination charger.png
43.4981530829	16.5358668566	Sea L'Aroma spa&wellness	coinmap	coinmap.png
43.4981647569	16.535512805	L'Aroma restaurant	coinmap	coinmap.png
43.4981958876	16.5358132124	Hotel Split	coinmap	coinmap.png
43.498051	16.53613	Hotel Split	destination charger	destination charger.png
52.3621656	9.7500656	Zukunftsstark - Jens Hansen Consulting GmbH	coinmap	coinmap.png
52.364325	9.747156	DORMERO Hotel Hannover	destination charger	destination charger.png
19.4126523061	-99.1800427437	HotDogs Ramirez Zamora	coinmap	coinmap.png
19.4119186846	-99.1790878773	Restaurante Tajmahal	coinmap	coinmap.png
19.4131380123	-99.1800749302	Cafe Condesa	coinmap	coinmap.png
19.409975	-99.183838	Sanborn's Tacubaya	destination charger	destination charger.png
25.6508609	-100.293384	La Charanda Bar	coinmap	coinmap.png
25.65489	-100.292793	Fiesta Inn Monterrey Tecnologico	destination charger	destination charger.png
16.8568218867	-99.8623001575	La Tortuga Restaurant & Bar	coinmap	coinmap.png
16.8560719	-99.8647061	AcaCondos	coinmap	coinmap.png
16.8562092	-99.8651875	Las Torres Gemelas Private Suites	coinmap	coinmap.png
16.8574691088	-99.8683514572	KOi Sushi shop	coinmap	coinmap.png
16.856203	-99.866515	Fiesta Americana Acapulco	destination charger	destination charger.png
16.8481453599	-99.8484385014	Verde Vegan	coinmap	coinmap.png
16.846089	-99.849758	Hotel One Acapulco	destination charger	destination charger.png
19.4218248248	-99.1732084751	Casi esquina	coinmap	coinmap.png
19.423082	-99.174307	Four Seasons Hotel Mexico, D.F.	destination charger	destination charger.png
19.4040307798	-99.172296524	Viajes360	coinmap	coinmap.png
19.4000588548	-99.1725003719	Physician Neurologist	coinmap	coinmap.png
19.400285	-99.170907	Fiesta Inn Insurgentes Viaducto	destination charger	destination charger.png
35.603118	-82.5527869	Minick Law, P.C.	coinmap	coinmap.png
35.601686	-82.549146	Bunn House Boutique Hotel	destination charger	destination charger.png
53.7995573	-1.5443754	CeX Leeds	coinmap	coinmap.png
53.7988422	-1.5427713	Global Tribe Cafe	coinmap	coinmap.png
53.7988242	-1.5427351	Global Tribe Crystals	coinmap	coinmap.png
53.802178	-1.543019	CitiPark Merrion Centre	destination charger	destination charger.png
51.2195374	4.4044801	Outpost Gamecenter	coinmap	coinmap.png
51.2188664	4.4087544	Coffeelabs	coinmap	coinmap.png
51.221704	4.406746	Small Luxury Hotel De Witte Lelie	destination charger	destination charger.png
19.4319521	-99.1981586	BULLET Hairdressing Club	coinmap	coinmap.png
19.431843	-99.193952	Cipriani Polanco	destination charger	destination charger.png
33.5082072	-112.02874	Arcui - IT Security Services	coinmap	coinmap.png
33.508891	-112.029064	The Camby Hotel	destination charger	destination charger.png
60.1603553	24.9195985	K-Market Jtksaari	coinmap	coinmap.png
60.15643	24.92092	Verkkokauppa.com	destination charger	destination charger.png
40.424077874	-3.69759678841	Kids&Funmily	coinmap	coinmap.png
40.426818	-3.698358	Urso Hotel & Spa	destination charger	destination charger.png
48.7774602682	9.18594360352	Climax Institutes	coinmap	coinmap.png
48.782061	9.182821	Althoff Hotel am Schlossgarten	destination charger	destination charger.png
-33.7964101959	151.185436249	Snakes In The City	coinmap	coinmap.png
-33.7963656166	151.182180047	Rejuvenation Clinics of Australia	coinmap	coinmap.png
-33.798486	151.183404	Westfield Chatswood Car Park - Top Level	destination charger	destination charger.png
44.063104829	12.5811910629	Hotel Ausonia	coinmap	coinmap.png
44.06729	12.581063	Hotel Villa Rosa Riviera	destination charger	destination charger.png
45.4293401	-75.6926952	Clock Tower Brew Pub	coinmap	coinmap.png
45.4274389457	-75.6901788712	Instacoin ATM - Kabab Prince	coinmap	coinmap.png
45.4293352	-75.6927624	BitAccess Bitcoin ATM	coinmap	coinmap.png
45.4264515	-75.6939621	http://www.themodernshop.ca/	coinmap	coinmap.png
45.424749	-75.692212	The Westin Ottawa	destination charger	destination charger.png
-37.8176231	144.9678882	Saang Accessories	coinmap	coinmap.png
-37.8135981987	144.973021746	Hempme	coinmap	coinmap.png
-37.8129455529	144.967979193	Hub Express	coinmap	coinmap.png
-37.8156578095	144.966310859	Bitcoin Dealers	coinmap	coinmap.png
-37.8175628	144.9673906	Helveticade Design Studio	coinmap	coinmap.png
-37.8121699987	144.965318441	Mind Games	coinmap	coinmap.png
-37.8141745565	144.965880428	Mind Games	coinmap	coinmap.png
-37.813325	144.968236	QT Melbourne	destination charger	destination charger.png
40.6255632	14.3764984	La Magnolia Bed & Breakfast	coinmap	coinmap.png
40.626443	14.376149	Grande Albergo Excelsior Vittoria	destination charger	destination charger.png
41.3827248	2.1543006	MADE Makerspace	coinmap	coinmap.png
41.3864435	2.1575275	Trabajos de diseo grfico	coinmap	coinmap.png
41.385704	2.157248	Hotel Acevi Villarroel	destination charger	destination charger.png
40.7607161	-73.9669623	Leeds United Construction	coinmap	coinmap.png
40.764423	-73.968865	Loews Regency New York	destination charger	destination charger.png
40.7607161	-73.9669623	Leeds United Construction	coinmap	coinmap.png
40.764617	-73.969764	Icon Parking 35-39 East 61st Street	destination charger	destination charger.png
29.7897129	-95.727464	BOSS Printing	coinmap	coinmap.png
29.793368	-95.729374	Best Western Premier Energy Corridor	destination charger	destination charger.png
-38.1512847837	144.362894297	Geelong Surgery	coinmap	coinmap.png
-38.1452264	144.3625476	NBNSP	coinmap	coinmap.png
-38.147286	144.366238	Vue Apartments Geelong	destination charger	destination charger.png
29.9552478	-90.0671103	David's Antiques	coinmap	coinmap.png
29.954968	-90.070728	The Ritz-Carlton New Orleans	destination charger	destination charger.png
21.1103550839	-86.8396604061	YANGO	coinmap	coinmap.png
21.11051	-86.839967	La roca Cancun	destination charger	destination charger.png
40.7607161	-73.9669623	Leeds United Construction	coinmap	coinmap.png
40.7632804	-73.9626658	The Focused Stock Trader Publishing	coinmap	coinmap.png
40.763981	-73.964368	Icon Parking 205 E 63rd St	destination charger	destination charger.png
40.7674279109	-73.9838647842	PinkSundaysStudio	coinmap	coinmap.png
40.770772	-73.981795	Icon Parking 30 W 63rd St	destination charger	destination charger.png
40.7632804	-73.9626658	The Focused Stock Trader Publishing	coinmap	coinmap.png
40.767615	-73.961509	Enterprise Parking 200 E 69th St	destination charger	destination charger.png
28.5428705	-81.3789261	MediaStormPro | Digital Media Production	coinmap	coinmap.png
28.538762	-81.378713	Grand Bohemian Hotel Orlando	destination charger	destination charger.png
45.9948970197	8.94276380539	Ok Bar Gestioni SA	coinmap	coinmap.png
45.994637	8.945937	Hotel Splendide Royal	destination charger	destination charger.png
51.4994284	-0.1970068	Quick File Accounting	coinmap	coinmap.png
51.502018	-0.194711	Indigo Kensington	destination charger	destination charger.png
40.4361853	-3.6872012	Djate Besar Bar	coinmap	coinmap.png
40.4326692	-3.6872715	Callejn de Serrano	coinmap	coinmap.png
40.4376752	-3.6867642	Only USA	coinmap	coinmap.png
40.4377839	-3.6890598	Instituto de Empresa	coinmap	coinmap.png
40.4361971	-3.6862478	Mesn 5Jotas	coinmap	coinmap.png
40.437451	-3.6865027	La Taberna	coinmap	coinmap.png
40.4357881	-3.6854531	Hotel Meli Galgos	coinmap	coinmap.png
40.4374069	-3.6865052	AvatarBTC	coinmap	coinmap.png
40.4334919	-3.6864374	Ibermaison	coinmap	coinmap.png
40.4336138	-3.6863603	MUOZ GONZLEZ, ARQUITECTOS	coinmap	coinmap.png
40.4364074	-3.6861892	Ori	coinmap	coinmap.png
40.4321958758	-3.68801593781	ZOOO ABC Serrano - Punto Bitnovo	coinmap	coinmap.png
40.437361	-3.6865518	La rsula	coinmap	coinmap.png
40.4367289	-3.6865563	Check-in Madrid	coinmap	coinmap.png
40.4376633	-3.6868614	Do Eat!	coinmap	coinmap.png
40.436415	-3.690211	Hotel InterContinental Madrid	destination charger	destination charger.png
45.5162449165	-73.5580158234	Bitcoin ATM @ Amir	coinmap	coinmap.png
45.516388	-73.560316	Auberge Le Pomerol	destination charger	destination charger.png
51.5064593	-0.1463346	Sensual, tantric massage by SENSUOUS London	coinmap	coinmap.png
51.5086957157	-0.14803647995	BlockStars.Capital	coinmap	coinmap.png
51.50497	-0.151181	The Mayfair Car Park	destination charger	destination charger.png
37.1770177701	-3.59996438026	Snadalo - Souvenir Granada	coinmap	coinmap.png
37.171764571	-3.60430955887	Restaurante Aparicios	coinmap	coinmap.png
37.172496	-3.603465	Palacio de los Patos SL	destination charger	destination charger.png
51.5172504	-0.1425829	London Theatre Direct Ltd	coinmap	coinmap.png
51.521862	-0.140954	CitiPark Clipstone Street	destination charger	destination charger.png
51.8968813	-2.0805879	David Savill Photography	coinmap	coinmap.png
51.8971	-2.080145	No 131	destination charger	destination charger.png
47.2860646	8.2241931	Windsurfschule CHUCK SURF, Strandbad Seerose	coinmap	coinmap.png
47.284138	8.225769	Hotel Seerose Resort & Spa	destination charger	destination charger.png
-33.8732304813	151.207237244	David Mahat	coinmap	coinmap.png
-33.8761967473	151.205649376	BitRocket Bitcoin ATM	coinmap	coinmap.png
-33.8694218	151.2051817	Spawn Point Small Bar	coinmap	coinmap.png
-33.8694276	151.2048541	Since I Left You	coinmap	coinmap.png
-33.8669902969	151.208546162	Bitcoin Dealers	coinmap	coinmap.png
-33.8676317073	151.208572984	VINNER PTY LTD	coinmap	coinmap.png
-33.8708965899	151.206121445	Independent Reserve	coinmap	coinmap.png
-33.8690049	151.2061917	The SG	coinmap	coinmap.png
-33.871961	151.208024	Secure Parking at the Hilton	destination charger	destination charger.png
25.6595119	-100.3579516	Smile & Sense	coinmap	coinmap.png
25.655413	-100.361534	Calzad401 Monterrey	destination charger	destination charger.png
34.0139474886	-118.49609971	Santa Monica Coworking	coinmap	coinmap.png
34.015369	-118.499111	Hotel Shangri-La	destination charger	destination charger.png
42.3337627	-83.0499026	Urban Bean Co.	coinmap	coinmap.png
42.3350726597	-83.0488568544	Chickpea in the D	coinmap	coinmap.png
42.334265	-83.045959	The Z Deck EFF	destination charger	destination charger.png
34.8690977214	-111.761512756	Nature Elements	coinmap	coinmap.png
34.869234	-111.759369	L'Auberge de Sedona	destination charger	destination charger.png
33.7577779347	-84.3989038467	SUPER BOWL HOTELS	coinmap	coinmap.png
33.762053	-84.395873	Centennial Park District Public Parking - 9th Level	destination charger	destination charger.png
35.6708506155	139.732763171	Japan Bike Rentals	coinmap	coinmap.png
35.6734112	139.7340202	Syncimage Corporation	coinmap	coinmap.png
35.6717439897	139.735654593		coinmap	coinmap.png
35.6680789127	139.73213017	Tokyo Chapter	coinmap	coinmap.png
35.669955	139.731734		destination charger	destination charger.png
45.4639834413	9.1898059845	Hemeras Boutique House	coinmap	coinmap.png
45.460171	9.191226	Garage Velasca, floor -1 	destination charger	destination charger.png
45.4670835528	9.19139385223	TopLife Concierge	coinmap	coinmap.png
45.466872871	9.18937683105	Dott. Casani - Home Visiting Doctor	coinmap	coinmap.png
45.4639834413	9.1898059845	Hemeras Boutique House	coinmap	coinmap.png
45.462322	9.189983	Autosilo Diaz, -1 floor / left entrance	destination charger	destination charger.png
45.4585606	9.2006116	Webstrike Srl	coinmap	coinmap.png
45.4612423	9.2002187	Avv. Francesco Trimboli	coinmap	coinmap.png
45.459336	9.196844	Autoparcheggio San Barnaba, floor -1	destination charger	destination charger.png
51.2380683564	6.78156852722	Simone Dino Bet	coinmap	coinmap.png
51.2375268	6.7828796	ottonormalo.de	coinmap	coinmap.png
51.233083	6.778131	Meli Hotel Dsseldorf	destination charger	destination charger.png
49.4482383503	11.0698145628	Ariston Imbiss und Grillrestaurant	coinmap	coinmap.png
49.448355	11.069475	Hotel Holiday Inn Nrnberg City Centre	destination charger	destination charger.png
40.7763877	-73.9606961	HM Acupuncture in Upper East Side NYC	coinmap	coinmap.png
40.7752947539	-73.9552919519	The Fitness Office	coinmap	coinmap.png
40.779876	-73.958579	iPark 41 E 85th Street	destination charger	destination charger.png
46.0889953	-64.7761907	Freshii Moncton	coinmap	coinmap.png
46.0890123	-64.7760934	BitAccess Bitcoin ATM	coinmap	coinmap.png
46.089295	-64.773635	Residence Inn Moncton	destination charger	destination charger.png
19.411751722	-99.1645985842	Bitcoin Embassy Bar	coinmap	coinmap.png
19.4090246421	-99.1605055332	Cine Tonala	coinmap	coinmap.png
19.4147165474	-99.1612833738	Endocrinologa y Metabolismo	coinmap	coinmap.png
19.412745	-99.16511	Plaza Insurgentes	destination charger	destination charger.png
34.0491392685	-118.254218102	Bitcoin Adult Store	coinmap	coinmap.png
