[
{"city":"Winterthur", "latitude":"47.49809", "longitude":"8.71968"},
{"city":"Affoltern am Albis", "latitude":"47.28151", "longitude":"8.45356"},
{"city":"Rapperswil", "latitude":"47.22738", "longitude":"8.82612"},
{"city":"Gossau ZH", "latitude":"47.30510", "longitude":"8.76081"},
{"city":"Lindau", "latitude":"47.44162", "longitude":"8.67122"},
{"city":"Brütten", "latitude":"47.47136", "longitude":"8.67069"},
{"city":"Kloten", "latitude":"47.45047", "longitude":"8.58277"},
{"city":"Zürich", "latitude":"47.36236", "longitude":"8.53530"},
{"city":"Kägiswil", "latitude":"46.9074", "longitude":"8.2528"},
{"city":"Sarnen", "latitude":"46.90156", "longitude":"8.25106"},
{"city":"Sachseln", "latitude":"46.86448", "longitude":"8.23053"},
{"city":"Nottwil", "latitude":"47.14108", "longitude":"8.13123"},
{"city":"Oberburg", "latitude":"47.0388", "longitude":"7.6295"},
{"city":"Utzensdorf", "latitude":"47.12666", "longitude":"7.55403"},
{"city":"Payerne", "latitude":"46.85056", "longitude":"6.92222"},
{"city":"Charmey", "latitude":"46.62079", "longitude":"7.16352"},
{"city":"Aigle", "latitude":"46.31978", "longitude":"6.96942"},
{"city":"Nendaz", "latitude":"46.18341", "longitude":"7.29514"},
{"city":"Vetroz", "latitude":"46.22565", "longitude":"7.28105"},
{"city":"Sierre", "latitude":"46.29097", "longitude":"7.53298"},
{"city":"Bürchen", "latitude":"46.2829", "longitude":"7.8162"},
{"city":"Brig", "latitude":"46.3118", "longitude":"7.9937"},
{"city":"Disentis", "latitude":"46.70434", "longitude":"8.85188"},
{"city":"Ilanz", "latitude":"46.7756", "longitude":"9.2055"},
{"city":"Haldenstein", "latitude":"46.8787", "longitude":"9.5255"},
{"city":"Vilters", "latitude":"47.02643", "longitude":"9.44999"},
{"city":"Sargans", "latitude":"47.04997", "longitude":"9.43770"},
{"city":"Buchs", "latitude":"47.17320", "longitude":"9.47418"},
{"city":"Sevelen", "latitude":"47.12126", "longitude":"9.49137"},
{"city":"Sennwald", "latitude":"47.26129", "longitude":"9.50308"},
{"city":"Eichberg", "latitude":"47.34862", "longitude":"9.52384"},
{"city":"Altstätten", "latitude":"47.37816", "longitude":"9.54100"},
{"city":"Heerbrugg", "latitude":"47.41072", "longitude":"9.62683"},
{"city":"Heiden", "latitude":"47.44483", "longitude":"9.53524"},
{"city":"Teufen", "latitude":"47.3903", "longitude":"9.3914"},
{"city":"St Gallen", "latitude":"47.42003", "longitude":"9.35850"},
{"city":"Gaiserwald", "latitude":"47.42224", "longitude":"9.31760"},
{"city":"Kreuzlingen", "latitude":"47.64844", "longitude":"9.17356"},
{"city":"Wil", "latitude":"47.56438", "longitude":"8.71679"},
{"city":"Wattwil", "latitude":"47.29979", "longitude":"9.08740"},
{"city":"Kaltbrunn", "latitude":"47.21324", "longitude":"9.02711"},
{"city":"Weesen", "latitude":"47.21324", "longitude":"9.02711"},
{"city":"Zug", "latitude":"47.17206", "longitude":"8.51468"},
{"city":"Hünenberg", "latitude":"47.17373", "longitude":"8.43381"},
{"city":"Mühlau", "latitude":"47.23052", "longitude":"8.38788"},
{"city":"Untersiggenthal", "latitude":"47.50173", "longitude":"8.25371"},
{"city":"Hallwil", "latitude":"47.32364", "longitude":"8.19595"},
{"city":"Olten", "latitude":"47.34944", "longitude":"7.90272"},
{"city":"Kaiseraugst", "latitude":"47.53638", "longitude":"7.72854"},
{"city":"Spreitenbach", "latitude":"47.42411", "longitude":"8.36816"}
]
